gebiedcode15,gebiednaam,longitude,latitude,business_id,business_name,review_count,rating,price
E,West,4.8731708,52.3746488,foodism-amsterdam,Foodism,59,4.5,€€
E,West,4.8758673,52.3630936,kartika-amsterdam,Kartika,122,4.5,€€
E,West,4.8750511,52.3718065,moeders-amsterdam,Moeders,169,4.5,€€
E,West,4.868067,52.367043,de-foodhallen-amsterdam,De Foodhallen,193,4.0,€€
E,West,4.8680416,52.3864486,mossel-en-gin-amsterdam,Mossel & Gin,41,4.5,€€€
E,West,4.8729343,52.3623352,gollems-proeflokaal-amsterdam,Gollem's Proeflokaal,43,4.5,€€
E,West,4.8673697,52.3539127,vida-amsterdam-amsterdam,VIDA Amsterdam,11,4.5,€€
E,West,4.87793,52.35812,pompa-amsterdam,Pompa,62,4.0,€€
E,West,4.8557054,52.3533986,blauw-amsterdam-2,Blauw,132,4.5,€€€
E,West,4.8773696,52.3635167,diverto-amsterdam,Diverto,16,5.0,€€€
E,West,4.844626,52.376479,wilde-westen-amsterdam,Wilde Westen,11,4.5,€€
E,West,4.87354732698,52.3812553702,rooster-amsterdam,Rooster,5,4.5,€€
E,West,4.87884,52.3685951,brasserie-blazer-amsterdam,Brasserie Blazer,25,4.5,€€
E,West,4.8645,52.3701706,bar-spek-amsterdam,Bar Spek,63,4.0,€€
E,West,4.8749051,52.3739891,croissanterie-friends-amsterdam,Croissanterie Friends,34,4.5,€
E,West,4.8775272,52.3599548,the-seafood-bar-amsterdam-oud-zuid,The Seafood Bar,111,4.5,€€€
E,West,4.87941596657,52.3732688309,salmuera-amsterdam-3,Salmuera,19,4.5,€€
E,West,4.8742846,52.3623078,one-dim-sum-amsterdam,One Dim Sum,14,4.5,€€
E,West,4.8539144,52.3808514,betawi-amsterdam-2,Betawi,12,4.5,€€
E,West,4.86810701569,52.3842363308,café-restaurant-amsterdam-amsterdam-2,Café-Restaurant Amsterdam,41,4.0,€€
E,West,4.87283339718,52.3860497286,brouwerij-troost-westergas-amsterdam-2,Brouwerij Troost Westergas,14,4.5,€€
E,West,4.8526201,52.3712807,café-cook-amsterdam-2,Café Cook,17,4.0,€€
E,West,4.87604,52.3725319,brandstof-amsterdam,Brandstof,40,4.0,€€
E,West,4.87975442544,52.3694291973,balthazars-keuken-amsterdam,Balthazar's Keuken,34,4.5,€€€
E,West,4.8782401,52.3729401,struik-amsterdam-3,Struik,22,4.5,€
E,West,4.8748013,52.3653286,teds-amsterdam-2,TEDS,50,4.0,€€
E,West,4.85146,52.370079,café-frits-amsterdam-2,Café Frits,17,4.0,€€
E,West,4.8714756,52.3846459,pendergast-amsterdam,Pendergast,8,4.5,
E,West,4.8666428,52.3699953,van-t-spit-amsterdam,Van 't Spit,28,4.0,€€
E,West,4.8729833588,52.36759914,jacketz-oud-west-amsterdam,Jacketz Oud-West,47,4.5,€€
E,West,4.87611483783,52.3698894576,waterkant-amsterdam,Waterkant,43,4.0,€€
E,West,4.8618016,52.3623683,staring-at-jacob-amsterdam,Staring At Jacob,48,4.0,€€
E,West,4.8765635,52.3632884,de-ebeling-amsterdam-2,De Ebeling,33,4.0,€€
E,West,4.87658,52.37221,waries-thai-food-amsterdam,Warie's Thai food,33,4.5,€€
E,West,4.8710546,52.3712935,mook-pancakes-amsterdam,Mook Pancakes,27,4.5,€€
E,West,4.86773343306,52.3606090728,tomatillo-amsterdam,Tomatillo,49,4.0,€€
E,West,4.867882,52.365664,café-panache-amsterdam,Café Panache,17,4.0,€€€
E,West,4.8742208,52.364727,pastis-amsterdam,Pastis,11,4.0,€€
E,West,4.8739958,52.3838029,bella-storia-amsterdam,Bella Storia,19,4.5,€€
E,West,4.86950037556,52.3538983931,ristorante-bellavista-amsterdam,Ristorante Bellavista,14,4.5,€€
E,West,4.8745899,52.3638992,zouk-amsterdam,Zouk,27,4.0,€€
E,West,4.857068,52.3579771,de-pizzabakkers-amsterdam-6,De Pizzabakkers,26,4.5,€€
E,West,4.8677535,52.370182,fier-amsterdam-2,Fier,25,4.0,€€
E,West,4.8707466,52.355545,traiteur-en-brasserie-van-dam-amsterdam,Traiteur en Brasserie Van Dam,16,4.5,€€
E,West,4.8630385,52.3638229,holy-ravioli-amsterdam-3,Holy Ravioli,10,4.5,€€
E,West,4.8679614726,52.3703919184,rotisserie-amsterdam,Rotisserie,28,4.0,€€
E,West,4.8737583,52.3652878,bosco-amsterdam,Bosco,21,4.0,€€
E,West,4.8729992,52.3743324,razmataz-amsterdam,Razmataz,19,4.0,€€
E,West,4.86629895866,52.3681903595,spaghetteria-amsterdam-west-amsterdam-2,Spaghetteria Amsterdam West,15,4.0,€€
E,West,4.8557511,52.3532787,kok-kita-amsterdam,Kok Kita,15,4.5,€
E,West,4.8734664,52.3554975,valerius-amsterdam-4,Valerius,33,4.5,€€
E,West,4.85090891381,52.3643998927,bartack-amsterdam,Bartack,6,4.5,€€
E,West,4.8763702,52.3657767,café-toussaint-amsterdam-2,Café Toussaint,35,4.0,€€
E,West,4.8762493,52.3654518,de-italiaan-amsterdam,De Italiaan,40,4.0,€€
E,West,4.87887,52.3768501,salvatorica-amsterdam,Salvatorica,7,5.0,
E,West,4.862,52.366169,cafe-kostverloren-amsterdam,Cafe Kostverloren,36,4.0,€€
E,West,4.8793799,52.3891581,bar-mick-amsterdam,Bar Mick,8,4.5,€€
E,West,4.8643823,52.3617249,golden-brown-bar-amsterdam,Golden Brown Bar,19,4.0,€€
E,West,4.8644395,52.3623047,voldaan-amsterdam,Voldaan,13,4.5,€€
E,West,4.8477852,52.3514497,drovers-dog-amsterdam-2,Drovers Dog,47,4.0,€€
E,West,4.8541002,52.3800697,podium-mozaïek-amsterdam-3,Podium Mozaïek,19,4.0,€€
E,West,4.8741,52.37804,plato-loco-amsterdam,Plato Loco,8,4.5,€€€
E,West,4.8672810828,52.3634795252,lab111-amsterdam,LAB111,15,4.0,€€
E,West,4.8736434,52.3619499,khorat-top-thai-amsterdam,Khorat Top Thai,12,4.0,€€
E,West,4.86386,52.36263,soul-burger-amsterdam,Soul Burger,6,4.5,€€
E,West,4.85520523099,52.3546549213,cafe-schinkelhaven-amsterdam,Cafe Schinkelhaven,20,4.0,€€
E,West,4.87193,52.36753,happyhappyjoyjoy-amsterdam,Happyhappyjoyjoy,44,3.5,€€€
E,West,4.8542554,52.3578612,oslo-beers-amsterdam,Oslo Beers,29,4.0,€€
E,West,4.85738923424,52.3584719514,zus-en-zus-amsterdam,Zus & Zus,10,4.0,€€
E,West,4.8804765,52.3641281,de-smoeshaan-amsterdam,De Smoeshaan,9,4.0,€€
E,West,4.85444,52.3810458,loving-hut-amsterdam,Loving Hut,9,4.5,€€
E,West,4.857226,52.351833,dignita-amsterdam-3,Dignita,45,4.5,€€
E,West,4.8723865,52.3665047,zest-food-en-more-amsterdam,Zest Food & More,4,4.5,€€
E,West,4.852427,52.3529472,stadscafe-van-mechelen-amsterdam,Stadscafe Van Mechelen,31,4.0,€€
E,West,4.87256,52.36705,gallery3-amsterdam,Gallery3,8,5.0,€€
E,West,4.869188,52.3542135,carter-bar-en-kitchen-amsterdam,Carter Bar & Kitchen,10,4.5,€€€
E,West,4.877628,52.3701195,tripel-amsterdam,Tripel,12,4.0,€€
E,West,4.87070783973,52.3700847474,meatless-district-amsterdam,Meatless District,16,4.0,€€
E,West,4.84831709415,52.3753508989,buurman-en-buurman-eetwinkel-amsterdam,Buurman & Buurman Eetwinkel,13,4.0,€€
E,West,4.86711470355,52.3701680799,pazzi-amsterdam-3,Pazzi,15,4.5,€€
E,West,4.85938,52.366211,kevin-bacon-bar-amsterdam-2,Kevin Bacon Bar,4,4.0,€€
E,West,4.87145044075,52.3858943821,pacific-parc-amsterdam,Pacific Parc,28,4.0,€€
E,West,4.86864803018,52.3706258858,hendrix-amsterdam-2,Hendrix,18,4.0,€€
E,West,4.84829,52.3786201,birtat-amsterdam,Birtat,5,4.0,€
E,West,4.87133498765,52.366931443,think-soup-amsterdam,Think Soup,5,5.0,€
E,West,4.8798437,52.366478,de-koe-amsterdam,De Koe,18,4.0,€€
E,West,4.8732858,52.374794,orontes-west-amsterdam,Orontes West,7,4.5,€€
E,West,4.8710251,52.3558655,brasserie-de-joffers-amsterdam,Brasserie De Joffers,21,4.0,€€
E,West,4.8564382,52.3521957,ron-gastrobar-amsterdam-2,Ron Gastrobar,55,4.0,€€€€
E,West,4.85952,52.3775215,van-de-buurt-amsterdam,Van De Buurt,9,4.0,€€
E,West,4.88041207194,52.3557591621,zest-for-life-amsterdam,Zest for life,8,5.0,€€
E,West,4.8667021,52.3664932,boer-geert-amsterdam-2,Boer Geert,4,4.5,€
E,West,4.87065553665,52.37227832,de-liefde-amsterdam-3,De Liefde,11,4.0,€€
E,West,4.8786998,52.3691483,dapur-kita-amsterdam,Dapur Kita,11,4.5,€€
E,West,4.8666377,52.3699112,cantinetta-wine-en-pasta-amsterdam,Cantinetta Wine & Pasta,17,4.5,€€€€
E,West,4.8665149593,52.3671356086,madrid-amsterdam,Madrid,15,3.5,€€
E,West,4.85773603807,52.3520008208,castro-amsterdam-2,Castro,11,4.5,€€
E,West,4.8733444,52.3717575,fuoco-vivo-amsterdam,Fuoco Vivo,27,4.0,€€
E,West,4.8731689,52.3736458,mitsos-traiterie-amsterdam,Mitsos Traiterie,4,5.0,€€
E,West,4.8536358,52.3704529,bar-baarsch-amsterdam,Bar Baarsch,31,3.5,€€
E,West,4.8802285,52.3698502,ristorante-la-festa-amsterdam,Ristorante La Festa,10,4.5,€€
E,West,4.8716799,52.36697,seoul-food-amsterdam,Seoul Food,5,4.5,€
E,West,4.8699198,52.3870087,westergasterras-amsterdam-2,WestergasTerras,23,3.5,€€
E,West,4.8660102,52.3605995,daarbaand-amsterdam-2,Daarbaand,15,4.0,€€
E,West,4.85101070255,52.3693772786,cafe-zürich-amsterdam-2,Cafe Zürich,30,3.5,€€
E,West,4.856288,52.3529587,pizza-sotto-amsterdam,Pizza Sotto,25,4.0,€€
E,West,4.8659902,52.3657112,barceloneta-amsterdam,Barceloneta,5,5.0,
E,West,4.85439933836,52.356413609,braai-amsterdam,Braai,12,4.0,€€
E,West,4.8804698,52.3884697,restaurant-freud-amsterdam,Restaurant Freud,9,4.5,€€
E,West,4.8768668,52.3726463,hutspot-amsterdam-2,Hutspot,13,4.5,€
E,West,4.88028,52.3560219,solo-eten-and-drinken-amsterdam,Solo Eten & Drinken,20,4.0,€€
E,West,4.8710234,52.3559767,di-bruno-amsterdam,Di Bruno,5,5.0,€€
E,West,4.8794599,52.3630905,san-george-amsterdam,San George,11,4.0,€€€
E,West,4.8591317609,52.3641888277,lokaal-edel-amsterdam,Lokaal Edel,17,4.0,€€
E,West,4.85616,52.38418,bos-en-lobster-amsterdam,Bos & Lobster,5,4.0,€€
E,West,4.8781049,52.36582,blue-pepper-amsterdam,Blue Pepper,22,4.0,€€€€
E,West,4.873095,52.3850212,de-culinaire-werkplaats-amsterdam,De Culinaire Werkplaats,6,4.5,€€€
E,West,4.85031,52.374067,terrasmus-amsterdam-2,Terrasmus,8,4.0,€€
E,West,4.87209310837,52.3514351478,robertos-restaurant-amsterdam,Roberto's Restaurant,14,4.5,€€€€
E,West,4.8773298,52.3754501,semhar-amsterdam,Semhar,10,4.0,€€
E,West,4.87461,52.38589,de-bakkerswinkel-west-amsterdam,De Bakkerswinkel West,40,4.0,€€
E,West,4.8536501,52.3702583,toko-surima-amsterdam,Toko Surima,2,4.5,
E,West,4.8753028,52.3722801,akitsu-amsterdam,Akitsu,23,4.5,€€€
E,West,4.8760643,52.3635712,hap-hmm-amsterdam,Hap Hmm,20,4.0,€€
E,West,4.8556452,52.3535957,dragon-i-amsterdam,Dragon i,24,4.0,€€€
E,West,4.88037,52.35881,blushing-amsterdam,Blushing,33,3.5,€€
E,West,4.86969,52.37094,huis-van-lópez-amsterdam,Huis van López,5,4.0,€€
E,West,4.86813763816,52.3679299667,remise47-amsterdam,Remise47,6,4.0,€€
E,West,4.8712811,52.3668289,kade-west-amsterdam,Kade West,9,4.0,€€
E,West,4.8652811618,52.3698976689,café-thuys-amsterdam-2,Café Thuys,23,4.0,€€
E,West,4.8552099,52.3825999,samen-lunch-en-juices-amsterdam,Samen Lunch & Juices,6,5.0,€
E,West,4.8591032,52.3585052,muang-thai-amsterdam,Muang Thai,7,4.0,€€
E,West,4.8704801,52.3557892,willems-amsterdam-13,Willems,9,4.0,€€
E,West,4.8579941,52.3586082,kaap-de-goede-hoop-amsterdam,Kaap De Goede Hoop,6,4.5,€€
E,West,4.84798,52.3527603,foodbar-63-graden-amsterdam,Foodbar 63 Graden,4,5.0,€€
E,West,4.8606395,52.3485939,marathonweg-amsterdam-2,Marathonweg,18,4.0,€€
E,West,4.8658786,52.3656849,artisani-amsterdam,Artisani,7,4.5,€€
E,West,4.8781121,52.3562756,chang-i-amsterdam,CHANG-I,10,4.5,€€€
E,West,4.8721395,52.3544781,cafe-verhulst-amsterdam,Cafe Verhulst,4,5.0,€€€
E,West,4.8626246,52.3708458,restaurant-mehtap-amsterdam,Restaurant Mehtap,4,5.0,
E,West,4.8597498,52.352169,affourtit-eten-and-drinken-amsterdam,Affourtit Eten & Drinken,13,4.0,€€
E,West,4.8561568,52.3518105,anne-and-max-amsterdam,Anne&Max,27,4.0,€€
E,West,4.86005717112,52.3712970448,stach-amsterdam-6,Stach,7,4.0,€€
E,West,4.8786702,52.3906288,pinsas-amsterdam-2,Pinsa's,8,4.5,€€€
E,West,4.87206436694,52.3543873721,frietboutique-amsterdam,Frietboutique,9,4.0,€
E,West,4.8761387,52.3657112,narbonne-amsterdam,Narbonne,5,4.0,€€
E,West,4.8735399,52.3629799,wilhelmina-amsterdam,Wilhelmina,15,4.0,€€
E,West,4.86096893087,52.3609444828,dikke-graaf-amsterdam,Dikke Graaf,2,5.0,€€
E,West,4.8676782,52.3605995,dish-global-kitchen-amsterdam,Dish Global Kitchen,14,4.0,€€
E,West,4.8654552,52.3608627,ethiopisch-eethuis-lalibela-amsterdam,Ethiopisch Eethuis Lalibela,21,4.0,€€
E,West,4.862577,52.371406,kauffmann-amsterdam-3,Kauffmann,3,4.0,€€
E,West,4.86705,52.3669,himalayan-kitchen-amsterdam,Himalayan Kitchen,6,4.0,€€
E,West,4.8792214,52.3567924,brasserie-de-keyzer-amsterdam,Brasserie de Keyzer,15,4.0,€€€€
E,West,4.8565049,52.3743248,kedai-jalan-jalan-amsterdam,Kedai Jalan-Jalan,1,5.0,
E,West,4.87199334763,52.3545677709,le-pain-quotidien-oud-zuid-amsterdam,Le Pain Quotidien Oud Zuid,25,4.0,€€
E,West,4.85300567155,52.3546794536,gent-aan-de-schinkel-amsterdam,Gent aan de Schinkel,24,3.5,€€
E,West,4.87877,52.37309,le-caféier-amsterdam,Le Caféier,14,4.5,€
E,West,4.8758798,52.3621407,anmol-indiaas-amsterdam,Anmol Indiaas,9,4.0,€€
E,West,4.87286,52.3715199,bagels-en-beans-amsterdam-3,Bagels & Beans,14,4.5,€
E,West,4.87164,52.38529,koffie-ende-koeck-amsterdam,Koffie Ende Koeck,12,4.5,€
E,West,4.8712786,52.3669567,coffee-room-amsterdam-2,Coffee Room,15,4.0,€€
E,West,4.8749893,52.3610346,vondelpark3-amsterdam,Vondelpark3,32,3.5,€€
E,West,4.8746196,52.374365,morgan-en-mees-restaurant-amsterdam-2,Morgan & Mees Restaurant,13,3.5,€€€
E,West,4.8617997,52.3644447,t-saoto-huisje-amsterdam,'t Saoto Huisje,2,5.0,€
E,West,4.85729,52.35799,shantys-kitchen-amsterdam,Shanty's Kitchen,6,4.0,€€
E,West,4.87894155033,52.3691989564,burgermeester-amsterdam-2,BURGERmeester,59,4.0,€€
E,West,4.8565502,52.3644104,haweli-amsterdam,Haweli,1,5.0,€€
E,West,4.86651,52.3702468,to-ouzeri-amsterdam,To Ouzeri,11,4.0,€€
E,West,4.8717802,52.367404,salad-en-the-city-amsterdam,Salad & the City,6,4.5,€€
E,West,4.8719935,52.3749664,sowieso-amsterdam-2,Sowieso,4,4.0,€€
E,West,4.8792577,52.3731842,mazzo-amsterdam,Mazzo,73,3.0,€€
E,West,4.8752599,52.3845596,café-de-gruyter-amsterdam-2,Café de Gruyter,6,4.0,€€
E,West,4.87828,52.36486,ciro-passami-l-olio-amsterdam,Ciro Passami L'Olio,12,4.0,€€€
E,West,4.86863279273,52.3611517878,fans-kitchen-amsterdam,Fan's Kitchen,4,4.5,
E,West,4.8584294,52.3712463,golden-pauw-amsterdam,Golden Pauw,4,4.5,€€
E,West,4.8719602,52.3844757,piri-piri-amsterdam-amsterdam,Piri Piri Amsterdam,3,4.5,
E,West,4.85671,52.3578911,adam-amsterdam-3,Adam,2,5.0,€€€
E,West,4.8687067,52.3542786,scala-della-pasta-amsterdam,Scala Della Pasta,8,4.0,€€
E,West,4.875,52.3569069,café-gruter-amsterdam-2,Café Gruter,14,3.5,€€
E,West,4.8619561,52.3629417,café-lennep-amsterdam-4,Café Lennep,9,3.5,€€
E,West,4.8916202,52.3553314,best-coast-taqueria-amsterdam,Best Coast Taqueria,2,4.5,€€
E,West,4.87838734658,52.3579244666,small-talk-amsterdam-5,Small Talk,27,3.5,€€
E,West,4.8744006,52.3652039,zina-amsterdam,Zina,5,4.0,€€€
E,West,4.87994,52.38896,walvis-amsterdam-2,Walvis,17,3.5,€€
E,West,4.8743024,52.3622894,restaurant-peper-and-zout-amsterdam,Restaurant Peper & Zout,4,4.0,
E,West,4.8505301,52.3570709,boteco-do-nerynho-amsterdam,Boteco Do Nerynho,3,4.5,€€
E,West,4.8788419,52.3837013,restaurant-queen-of-sheba-amsterdam-2,Restaurant Queen of Sheba,6,4.0,€€
E,West,4.855352,52.357231,sticky-fingers-amsterdam,Sticky Fingers,3,4.5,
E,West,4.8625467,52.3716486,faam-amsterdam,Faam,8,4.0,€€€
E,West,4.8793713,52.3788892,songkran-amsterdam,Songkran,5,4.0,€€
E,West,4.8514619,52.3699417,jade-garden-amsterdam,Jade Garden,2,4.5,€€
E,West,4.8773298,52.3830109,cafe-nassau-amsterdam,Cafe Nassau,22,3.5,€€
E,West,4.8795241,52.3778432,café-penris-amsterdam,Café Penris,3,4.5,
E,West,4.8754349,52.3554911,le-4-stagioni-amsterdam,Le 4 stagioni,24,3.5,€€
E,West,4.8757348,52.3630638,café-restaurant-toom-amsterdam-2,Café Restaurant Toom,2,4.5,€€€
E,West,4.86527823988,52.3464492784,eetcafé-de-hut-amsterdam-2,Eetcafé De Hut,17,4.0,€€
E,West,4.8556352,52.3536211,restaurant-95-amsterdam,Restaurant 95,5,4.5,€€€
E,West,4.8633753,52.3528804,george-bistro-bistro-amsterdam,George Bistro Bistro,14,3.5,€€
E,West,4.8552551,52.354557,chi-amsterdam,CHI,2,5.0,
E,West,4.86794460083,52.3655531621,cafe-bax-amsterdam,Cafe Bax,10,4.0,€€
E,West,4.8796166,52.3889163,dophert-amsterdam-2,Dophert,17,4.5,€€
E,West,4.8731875,52.375885,restaurant-jun-amsterdam,Restaurant Jun,12,4.0,€€€
E,West,4.8600769,52.3587608,toasty-amsterdam,Toasty!,18,3.5,€
E,West,4.85662558427,52.3509357356,café-bos-amsterdam-2,Café BOS,4,4.0,€€
E,West,4.87258,52.35888,t-blauwe-theehuis-amsterdam,'t Blauwe Theehuis,40,3.5,€€
E,West,4.868219,52.368646,café-kwaker-amsterdam-2,Café Kwaker,3,4.5,€
E,West,4.8738823,52.3745956,cafetaria-t-stekkie-amsterdam,Cafetaria 't Stekkie,4,4.5,€€
E,West,4.8772101,52.3470497,eetcafé-fidelio-amsterdam-2,Eetcafé Fidelio,22,3.5,€€
E,West,4.8752962,52.386606,westergasfabriek-amsterdam,Westergasfabriek,4,4.5,
E,West,4.8612938,52.3607178,indian-express-amsterdam,Indian Express,6,4.0,€€
E,West,4.8552098,52.3704338,kattencafé-kopjes-amsterdam,Kattencafé Kopjes,17,4.0,€
E,West,4.8579494,52.3601669,hout-amsterdam,Hout,3,4.5,€€€
E,West,4.8676171,52.3621483,café-de-toog-amsterdam-2,Café De Toog,9,4.0,€€
E,West,4.87919,52.3679504,café-chaos-amsterdam-2,Café Chaos,10,3.5,€
E,West,4.8730235,52.3743401,ibo-doner-kebab-amsterdam,Ibo Doner Kebab,4,4.0,€€
E,West,4.8470602,52.3856087,dream-amsterdam,Dream,5,3.5,€€€
E,West,4.8801103,52.3882265,bocconi-sani-amsterdam,Bocconi Sani,4,4.0,€€
E,West,4.8661199,52.38606,de-tonton-club-amsterdam-2,De Tonton Club,4,4.0,€€
E,West,4.8754392,52.3781815,lazagne-amsterdam-2,Lazagne,7,3.5,€€
E,West,4.8656201,52.3857002,raïnaraï-westergasfabriek-amsterdam-2,Raïnaraï Westergasfabriek,14,3.5,€€€
E,West,4.88025,52.3700294,t-stuivertje-amsterdam,'t Stuivertje,6,3.5,€€
E,West,4.8561707,52.3517876,ijmuider-vishandel-amsterdam-2,IJmuider Vishandel,3,4.5,€€
E,West,4.857605,52.3581238,buuf-amsterdam,Buuf,21,3.5,€€
E,West,4.8786893,52.3727417,cook-kai-amsterdam,Cook Kai,7,4.5,€€
E,West,4.8703146,52.3697319,chinees-restaurant-pagode-amsterdam,Chinees Restaurant Pagode,3,4.5,
E,West,4.8776846,52.3580476,the-cold-pressed-juicery-amsterdam-2,The Cold Pressed Juicery,19,4.5,€
E,West,4.8673201,52.3675613,the-breakfast-club-amsterdam,The Breakfast Club,29,3.0,€€
E,West,4.8475706,52.3481635,helder-amsterdam-2,Helder,10,3.5,€€
E,West,4.86826102595,52.3587003454,groot-melkhuis-amsterdam,Groot Melkhuis,20,3.5,€€
E,West,4.8618407,52.3752251,griekse-traiterie-ela-amsterdam,Griekse Traiterie Ela!,2,4.0,€€
E,West,4.8487015,52.3517342,grillroom-dizinghof-amsterdam,Grillroom Dizinghof,2,4.0,
E,West,4.86701934312,52.3462195719,the-red-sun-amsterdam,The Red Sun,20,4.0,€€€€
E,West,4.8558831,52.3528862,mangetsu-amsterdam,Mangetsu,7,4.0,€€€
E,West,4.8640199,52.3624191,saffraan-traiteur-brasserie-amsterdam,Saffraan Traiteur Brasserie,4,4.0,€€
E,West,4.85992,52.3598595,restaurant-forno-communale-amsterdam,Restaurant Forno Communale,13,3.5,€€
E,West,4.87748511136,52.3598949565,the-uptown-meat-club-amsterdam,The Uptown Meat Club,14,3.5,€€€€
E,West,4.85896634816,52.3449058315,cucina-casalinga-amsterdam,Cucina Casalinga,3,4.5,
E,West,4.86885,52.39278,westcord-amsterdam,Westcord,1,5.0,
E,West,4.8672328,52.3675423,taco-gallery-pop-up-amsterdam,Taco Gallery Pop Up,2,5.0,
E,West,4.8555598,52.371109,snackbar-ufuk-amsterdam,Snackbar Ufuk,6,4.0,€€
E,West,4.8773265,52.3592072,maxies-brasserie-amsterdam,Maxie's Brasserie,2,4.0,€€€
E,West,4.8651366,52.3612328,fenan-klein-afrika-amsterdam,Fenan Klein Afrika,7,4.5,€€€
E,West,4.8771621,52.3647929,taqueria-tacobar-amsterdam,Taqueria Tacobar,6,3.0,€€
E,West,4.8743209,52.3646155,toast-brothers-amsterdam,Toast Brothers,1,5.0,€
E,West,4.8571,52.3511696,la-favola-amsterdam,La Favola,5,4.0,€€€
E,West,4.874795,52.384558,viscafe-de-gouden-hoek-amsterdam,Viscafe De Gouden Hoek,4,3.5,€€
E,West,4.8477898,52.3517189,croissanterie-eifeltoren-amsterdam,Croissanterie Eifeltoren,3,4.5,€
E,West,4.8653269,52.3660507,feel-food-amsterdam,Feel Food,5,4.0,
E,West,4.87989066397,52.3887378475,yummie-sushi-amsterdam,Yummie Sushi,5,5.0,€€
E,West,4.8633618,52.3650856,dönerland-grillroom-amsterdam-2,Dönerland Grillroom,5,4.0,€
E,West,4.851043,52.3829188,bar-roseval-amsterdam,Bar Roseval,3,4.0,
E,West,4.8729809847,52.3745461017,brasserie-de-groot-amsterdam,Brasserie De Groot,6,3.5,€€
E,West,4.86936,52.36683,piccolo-amsterdam-2,Piccolo,3,4.5,
E,West,4.8704801,52.3635101,wg-café-amsterdam-2,WG Café,6,4.0,€€
E,West,4.8754463,52.3621025,trattoria-toto-amsterdam,Trattoria Toto,9,4.0,€€€
E,West,4.87954,52.38131,pie-nong-thai-amsterdam,Pie-Nong Thai,3,3.5,€€
E,West,4.8540912,52.3708801,pera-grillroom-amsterdam,Pera Grillroom,2,4.5,
E,West,4.85572311992,52.3822322855,bistro-bos-amsterdam,Bistro Bos,2,3.5,€€€
E,West,4.85149,52.36444,iets-aparts-amsterdam-3,Iets Aparts,1,5.0,
E,West,4.8687272,52.3608544,olivity-amsterdam,Olivity,5,4.5,€€
E,West,4.87801649485,52.3633926209,peoples-place-amsterdam-3,People's Place,1,5.0,
E,West,4.8565319947,52.354899513,vondeltuin-amsterdam,Vondeltuin,17,3.5,€€
E,West,4.866559,52.366993,warung-swietie-amsterdam-2,Warung Swietie,2,4.0,
E,West,4.8645092,52.3621995,warung-celebes-amsterdam-2,Warung Celebes,6,4.0,€€
E,West,4.84923440112,52.3497760098,warung-padi-amsterdam,Warung Padi,3,4.5,
E,West,4.87136045605,52.3690851258,toko-bersama-amsterdam,Toko Bersama,1,5.0,
E,West,4.85771,52.38196,birthday-café-amsterdam,Birthday Café,2,4.5,
E,West,4.8580429,52.371165,maz-mez-amsterdam-2,Maz Mez,4,3.0,
E,West,4.878716,52.3899422,yayang-amsterdam,Yayang,3,3.5,
E,West,4.87526,52.38456,piet-de-gruyter-amsterdam,Piet de Gruyter,2,3.0,
E,West,4.8704801,52.3557892,restaurant-spring-amsterdam,Restaurant Spring,4,4.5,€€€
E,West,4.86054897308,52.3485524376,café-kiebêrt-amsterdam,Café Kiebêrt,19,4.0,€€
E,West,4.8734698,52.3621216,restaurant-fiorentino-amsterdam,Restaurant Fiorentino,2,4.5,€€€
E,West,4.8657398,52.3459892,bagel-nash-amsterdam,Bagel Nash,9,4.0,€
E,West,4.8474327,52.3514905,woest-amsterdam-2,Woest,4,4.0,
E,West,4.8637499,52.3627899,deegrollers-amsterdam,Deegrollers,7,3.5,€€
E,West,4.8722401,52.3609695,de-hollandsche-manege-amsterdam,De Hollandsche Manege,10,4.0,€€
E,West,4.8674698,52.3677216,the-rough-kitchen-amsterdam-2,The Rough Kitchen,1,4.0,€€
E,West,4.87861,52.3730199,has-mercan-patisserie-amsterdam,Has Mercan Patisserie,1,5.0,€
E,West,4.87448909788,52.3641814192,thrill-grill-amsterdam-6,Thrill Grill,5,3.0,
E,West,4.8632631,52.3634758,eethuis-pizza-piom-bino-amsterdam,Eethuis Pizza Piom Bino,1,5.0,€
E,West,4.856228,52.353102,restaurant-baan-thai-amsterdam,Restaurant Baan Thai,6,3.0,€€
E,West,4.8727598,52.3801994,breitner-amsterdam-3,Breitner,3,3.0,
E,West,4.87342187579,52.3761124091,yam-yam-trattoria-pizzeria-amsterdam,Yam Yam Trattoria - Pizzeria,25,4.0,€€
E,West,4.8540401,52.3583107,casa-di-maggio-amsterdam,Casa di Maggio,1,5.0,€€
E,West,4.85190890729,52.3691181161,mr-pinoy-amsterdam,Mr. Pinoy,2,3.5,€
E,West,4.85695,52.3514588,pasta-paradijs-amsterdam,Pasta Paradijs,1,5.0,€
E,West,4.8718474,52.3534713,brasserie-lairesse-amsterdam,Brasserie Lairesse,1,4.0,
E,West,4.86339,52.3529701,biscuit-amsterdam,Biscuit,4,3.5,€€
E,West,4.8664398,52.3673096,bar-brouw-amsterdam,Bar Brouw,22,3.0,€€
E,West,4.8748771,52.3572556,george-w-p-a-amsterdam,George W.P.A.,42,3.0,€€
E,West,4.8750731349,52.3680746957,the-chippy-amsterdam,The Chippy,3,4.0,€€
E,West,4.8776817,52.3829565,warung-suri-kitchen-amsterdam,Warung Suri Kitchen,1,5.0,€€
E,West,4.87297296524,52.3660436706,miss-saigon-amsterdam,Miss Saigon,12,3.5,€€
E,West,4.8728499,52.3859901,mc-theater-amsterdam,MC Theater,8,4.0,€€
E,West,4.86814527289,52.3668739922,the-butcher-west-amsterdam,The Butcher West,2,4.5,€€€
E,West,4.8712983,52.3553696,restaurant-sardegna-amsterdam,Restaurant Sardegna,18,4.0,€€€
E,West,4.8505151,52.3785898,café-t-lommertje-amsterdam,Café 't Lommertje,1,4.0,
E,West,4.8744608,52.3568287,restaurant-classico-amsterdam,Restaurant Classico,5,3.5,
E,West,4.87417113333,52.351243375,de-kersentuin-amsterdam,De Kersentuin,2,4.0,€€€
E,West,4.8717851,52.375002,no-1916-amsterdam,No 1916,1,5.0,
E,West,4.8732682,52.3717389,burrito-amsterdam-amsterdam,Burrito Amsterdam,7,3.5,€€
E,West,4.8543801,52.3582115,cest-la-vie-amsterdam-2,C'est la vie,1,5.0,
E,West,4.8730402,52.3733711,sushi-one-amsterdam-2,Sushi One,2,4.0,
E,West,4.85959275767,52.345302987,asian-flavours-amsterdam,Asian Flavours,2,3.5,€€€
E,West,4.8799067,52.3733521,pasta-panini-amsterdam,Pasta Panini,3,4.5,
E,West,4.87595526869,52.3683255645,queens-kitchen-amsterdam,Queens Kitchen,1,5.0,
E,West,4.87629789859,52.383797291,graaf-leopold-amsterdam,Graaf Leopold,2,3.0,
E,West,4.85728,52.34552,mr-sam-amsterdam,Mr. Sam,4,4.0,
E,West,4.87021441108,52.3811525137,paviljoen-van-beuningen-amsterdam,Paviljoen van Beuningen,1,3.0,€
E,West,4.8638,52.3446007,umeno-amsterdam,Umeno,5,4.0,
E,West,4.8607769,52.3593521,neetu-da-dhaba-amsterdam,Neetu Da Dhaba,3,4.5,€€
E,West,4.8611089,52.3590491,cafe-goud-west-amsterdam,cafe Goud west,2,4.0,
E,West,4.8698957,52.3689214,baires-empanadas-amsterdam-3,Baires Empanadas,3,4.0,
E,West,4.85434527827,52.358123359,in-t-vierde-baarsje-amsterdam,In 't Vierde Baarsje,4,4.5,€€€
E,West,4.8575101,52.3576584,fijnkost-amsterdam-2,Fijnkost,4,3.5,€€
E,West,4.8569889,52.3579521,grootmoeders-pannekoekenhuis-amsterdam,Grootmoeders Pannekoekenhuis,5,3.5,
E,West,4.87951995847,52.3561848899,concertgebouw-café-amsterdam,Concertgebouw Café,1,4.0,€€
E,West,4.8800249,52.3707848,de-uitvreter-amsterdam,De Uitvreter,2,4.0,
E,West,4.8493359983,52.3511482717,roti-king-amsterdam,Roti King,2,4.5,€
E,West,4.8614671,52.3595231,sushi-day-amsterdam,Sushi Day,1,5.0,
E,West,4.85582359135,52.3535750083,franklin-bar-en-kitchen-amsterdam,Franklin Bar & Kitchen,16,3.5,€€
E,West,4.8748699,52.38503,lodewijcks-amsterdam,Lodewijck's,2,4.0,
E,West,4.87550714944,52.3682459204,manoushi-amsterdam,Man'Oushi,4,5.0,
E,West,4.8798803,52.3884634,pho-house-amsterdam,Pho House,12,3.5,€€
E,West,4.86838,52.35525,cafe-waldeck-bar-amsterdam,Cafe Waldeck Bar,3,3.5,€€
E,West,4.8786201,52.3586197,taiko-by-schilo-amsterdam,Taiko by Schilo,5,3.5,€€€€
E,West,4.8737607,52.3550568,restaurant-oud-zuid-amsterdam,Restaurant Oud Zuid,17,3.5,€€€€
E,West,4.8622237,52.3480723,coja-snacks-amsterdam,Coja Snacks,3,4.5,€
E,West,4.8593602,52.3697739,art-centre-amsterdam,ART Centre,1,5.0,€€
E,West,4.8652172,52.3604202,abyssinia-afrikaans-eet-cafe-amsterdam,Abyssinia Afrikaans Eet-Cafe,19,3.5,€€
E,West,4.8778062,52.3832664,ramazotti-pizzaria-amsterdam,Ramazotti Pizzaria,1,5.0,
E,West,4.8651109,52.3612747,restaurant-paloma-blanca-amsterdam,Restaurant Paloma Blanca,7,3.5,€€
E,West,4.86867268183,52.3463543447,l-arena-amsterdam,l'Arena,8,3.0,€€€
E,West,4.84697,52.38431,la-casa-di-michael-amsterdam,La Casa Di Michael,1,5.0,
E,West,4.8514647,52.3827324,traiteur-arabia-amsterdam,Traiteur Arabia,2,4.0,
E,West,4.8713102,52.3794518,rodos-amsterdam,Rodos,1,4.0,
E,West,4.86047621367,52.3644649609,porto-marina-amsterdam,Porto Marina,5,3.0,€€
E,West,4.8792314,52.3713345,cafezinho-amsterdam,Cafezinho,6,3.5,€€
E,West,4.87408820161,52.3861015256,billies-bar-amsterdam,Billie's Bar,1,5.0,
E,West,4.8751702,52.3627892,toko-ikan-mas-amsterdam,Toko Ikan MAS,11,3.5,€€
E,West,4.8733602,52.3746681,kemang-amsterdam,Kemang,2,4.5,€€
E,West,4.8729916,52.3657112,oranje-café-amsterdam-2,Oranje Café,3,3.5,
E,West,4.8736069724,52.3649887126,street-kitchen-amsterdam,Street Kitchen,3,2.0,€€
E,West,4.86485,52.34598,la-cucina-di-nonna-francesca-amsterdam,La Cucina Di Nonna Francesca,1,5.0,
E,West,4.8696198,52.3706207,grillroom-shoarma-mesut-amsterdam,Grillroom Shoarma Mesut,1,5.0,
E,West,4.8557649,52.3521233,vijay-dhaba-amsterdam,Vijay Dhaba,1,4.0,
E,West,4.85138755292,52.3698149443,ice-and-bites-amsterdam,Ice and Bites,1,4.0,€€
E,West,4.87849,52.3779984,grand-café-gezond-amsterdam-2,Grand Café Gezond,1,4.0,
E,West,4.87303441252,52.3715797979,manoto-amsterdam,Manoto,8,3.0,€€€
E,West,4.8691163,52.3666344,bulls-and-dogs-amsterdam,Bulls and Dogs,8,4.0,€
E,West,4.87122,52.3670967,snckbr-amsterdam-3,SNCKBR,1,5.0,
E,West,4.84644742504,52.3778529296,meram-amsterdam,Meram,3,1.5,€
E,West,4.8721766,52.3836975,mét-smaak-amsterdam-2,Mét Smaak,1,4.0,
E,West,4.87623791039,52.3714491977,saras-kitchen-amsterdam,Sara's Kitchen,1,5.0,€€
E,West,4.86158,52.37519,selmas-amsterdam,Selma's,1,4.0,
E,West,4.8502049,52.3517151,boosty-amsterdam,Boosty,2,4.0,€
E,West,4.8545847,52.3507957,gouden-tent-amsterdam-4,Gouden Tent,3,4.5,€€
E,West,4.8611284,52.3481903,marathon-doner-amsterdam,marathon doner,1,5.0,
E,West,4.8734546,52.3659019,dapper-amsterdam-2,Dapper,27,3.0,€€
E,West,4.870752,52.370171,candela-amsterdam,Candela,1,5.0,€
E,West,4.857605,52.3581238,prany-thai-dining-and-wining-amsterdam,Prany Thai Dining & Wining,1,4.0,€€
E,West,4.86077193171,52.3484023149,aji-sai-sushi-en-wok-amsterdam,Aji Sai Sushi & Wok,1,5.0,
E,West,4.8790236,52.372817,bar-117-amsterdam,Bar 117,1,4.0,€€
E,West,4.87385237653,52.3837195861,bistro-bentinck-amsterdam,Bistro Bentinck,1,5.0,
E,West,4.8544121,52.3507309,de-baars-eten-en-drinken-amsterdam,De Baars Eten En Drinken,1,4.0,€€
E,West,4.8497295,52.3784944,seyidoglu-amsterdam,Seyidoglu,3,2.5,
E,West,4.8783498,52.3825493,atakan-nacht-and-restaurant-amsterdam,Atakan Nacht & Restaurant,1,4.0,
E,West,4.8503999,52.39255,burger-king-amsterdam-9,Burger King,5,2.0,€
E,West,4.8711978,52.381636,café-de-sting-amsterdam,Café De Sting,1,4.0,
E,West,4.8643332,52.3459282,sushi-world-amsterdam,Sushi World,2,4.5,€€€
E,West,4.8778901,52.3969994,restaurant-boven-de-planken-amsterdam,Restaurant Boven De Planken,1,4.0,
E,West,4.8612417,52.3591049,fondue-en-fondue-amsterdam-2,Fondue & Fondue,9,3.5,€€
E,West,4.8717713,52.375042,happy-döner-amsterdam,Happy Döner,1,4.0,€
E,West,4.8544402,52.3539696,de-binnenpret-mkz-amsterdam,De Binnenpret MKZ,2,4.5,€
E,West,4.8745751,52.3677826,la-chesa-amsterdam,La Chesa,2,4.5,
E,West,4.8534889,52.3644447,pizza-express-donna-amsterdam,Pizza Express Donna,1,4.0,
E,West,4.85899496824,52.3452692828,eetcafé-le-traffic-amsterdam,Eetcafé Le Traffic,7,3.5,€€
E,West,4.8787895,52.3727807,pesca-amsterdam,Pesca,5,4.5,€€
E,West,4.846,52.37533,hard-hout-café-fossa-amsterdam,Hard Hout Café Fossa,2,2.5,€€
E,West,4.85501,52.34517,agora-amsterdam,Agora,1,5.0,
E,West,4.8779383,52.3913002,chung-wah-amsterdam-2,Chung Wah,2,5.0,
E,West,4.87949544749,52.3889900999,de-pizzabakkers-spaarndammer-amsterdam,De Pizzabakkers Spaarndammer,2,4.5,€€
E,West,4.85517671926,52.3512378641,spuntino-amsterdam,Spuntino,5,3.5,€€
E,West,4.85836700665,52.3443866213,jack-dish-amsterdam,Jack Dish,3,3.5,€€
E,West,4.85728674718,52.3461809026,houblon-amsterdam,Houblon,2,3.0,
E,West,4.869128,52.367202,belcampo-amsterdam,Belcampo,9,4.0,€
E,West,4.849725,52.350853,lunchroom-grannies-amsterdam,Lunchroom Grannies,2,4.0,€€
E,West,4.874733,52.3623924,overtaart-amsterdam,Overtaart,1,4.0,
E,West,4.85634,52.35277,wok-to-go-amsterdam-2,Wok To Go,2,3.5,
E,West,4.86710496247,52.3761082134,graceland-bar-b-q-amsterdam,Graceland Bar-B-Q,43,3.5,€€
E,West,4.8719602,52.3844757,kasbah-restaurant-el-amsterdam,"Kasbah Restaurant, El",1,4.0,
E,West,4.87060600403,52.3988208216,dok-amsterdam,Dok,4,3.5,€€
E,West,4.8508921,52.3510199,kleine-delis-amsterdam,Kleine Delis,1,5.0,
E,West,4.8600988,52.374713,rams-roti-west-amsterdam,Ram's Roti West,4,3.5,€€
E,West,4.8795796937,52.3575404153,restaurant-stedelijk-amsterdam,Restaurant Stedelijk,33,3.0,€€
E,West,4.8705101,52.3690987,du-cap-amsterdam,Du Cap,22,3.0,€€
E,West,4.87120609189,52.3690331982,haringspecialist-jan-schilder-amsterdam,Haringspecialist Jan Schilder,2,5.0,
E,West,4.8666601,52.3658981,chong-kee-amsterdam,Chong Kee,2,4.5,
E,West,4.869908,52.355921,adriani-petit-amsterdam,Adriani Petit,1,4.0,€
E,West,4.86763,52.3637299,strangelove-amsterdam,Strangelove,2,4.0,
E,West,4.8705382,52.3693123,sugarless-amsterdam,Sugarless,12,3.5,€€
E,West,4.87415692682,52.3786537574,snackbar-michael-amsterdam,Snackbar Michael,1,3.0,€
E,West,4.8746614,52.3623734,snackbar-grillroom-miriam-amsterdam,Snackbar-Grillroom Miriam,1,3.0,€€
E,West,4.86588532897,52.3698349521,hotel-restaurant-larende-amsterdam-2,Hotel-Restaurant Larende,2,4.0,€€
E,West,4.8793898,52.3599014,p-c-hooftstraat-amsterdam,P.C. Hooftstraat,6,4.0,€€€€
E,West,4.8724787,52.3670189,peruvian-cuisine-nl-amsterdam,Peruvian Cuisine NL,2,4.5,
E,West,4.849272,52.351108,eetcafé-zusjes-amsterdam,Eetcafé Zusjes,1,4.0,
E,West,4.8697535,52.3559177,da-portare-via-amsterdam-6,da Portare Via,1,3.0,
E,West,4.87077,52.3826,snackbar-cido-amsterdam,Snackbar Cido,1,4.0,
E,West,4.84785888555,52.3842255397,yang-ming-amsterdam,Yang Ming,1,3.0,€€
E,West,4.86925999631,52.3665377864,garys-deli-amsterdam,Gary's Deli,25,4.0,€
E,West,4.87272543858,52.3693442563,defour-amsterdam,DeFour,2,4.5,
E,West,4.8775702,52.3975983,woods-amsterdam-2,Woods,2,2.5,
E,West,4.8533401,52.3507004,bakkerij-vera-mensink-amsterdam,Bakkerij Vera Mensink,7,3.5,€€
E,West,4.874524,52.364014,mozzarella-bar-amsterdam,Mozzarella Bar,4,3.0,€
E,West,4.85539913177,52.3512746291,euro-snackbar-amsterdam,Euro Snackbar,1,2.0,
E,West,4.86413679192,52.3619902031,lavanta-amsterdam,Lavanta,2,4.0,€€
E,West,4.8709569,52.3562431,mech-to-go-amsterdam,Mech To-Go,8,4.0,€€
E,West,4.8659,52.37014,h-burger-amsterdam,H.Burger,1,5.0,
E,West,4.8781,52.36262,joost-amsterdam,Joost,2,3.0,
E,West,4.8495444,52.3601039,pop-up-de-tulp-amsterdam,pop-up de Tulp,1,4.0,
E,West,4.873281,52.3624382,dosa-amsterdam,Dosa,7,3.0,€
E,West,4.85768117786,52.3647689844,coffeecompany-amsterdam-9,Coffeecompany,1,3.0,€€
E,West,4.8544233,52.3507118,slowth-brunch-amsterdam,Slowth Brunch,1,5.0,
E,West,4.8559499,52.35392,mangia-pizza-amsterdam,Mangia Pizza,3,4.5,€€
E,West,4.8546648,52.380909,snackbar-desiree-amsterdam-2,Snackbar Desiree,1,3.0,
E,West,4.8768088,52.3726449,ali-baba-amsterdam-2,Ali Baba,2,3.0,
E,West,4.8678799,52.3674698,le-bigh-fish-amsterdam,Le Bigh Fish,2,4.0,
E,West,4.8690044,52.366526,piada-en-gnocchi-amsterdam,Piada & Gnocchi,1,5.0,
E,West,4.87209459044,52.3949802793,the-eet-team-amsterdam,The Eet-Team,1,4.0,
E,West,4.857235,52.3484306,koemans-amsterdam,Koeman's,1,4.0,
E,West,4.8727245,52.36667,restaurant-riaz-amsterdam,Restaurant Riaz,8,4.0,
E,West,4.8482923,52.3840202,chinees-indisch-restaurant-hapli-amsterdam,Chinees Indisch Restaurant 'Hapli',1,4.0,
E,West,4.868842,52.367259,anne-en-max-amsterdam-2,Anne & Max,5,4.0,€€
E,West,4.8798875,52.3779695,the-fish-toko-amsterdam,The Fish Toko,5,4.0,€€
E,West,4.86423921585,52.3459510803,warung-tegal-amsterdam,Warung Tegal,2,4.5,
E,West,4.880681,52.3555641,restaurant-zabars-amsterdam,Restaurant Zabar's,1,4.0,
E,West,4.875307,52.368224,restaurant-beyrouth-amsterdam,Restaurant Beyrouth,6,3.5,€€
E,West,4.85581,52.35307,t-steakhouse-amsterdam,'t Steakhouse,8,3.0,€€€
E,West,4.860755,52.3750954,rue-de-sèvres-amsterdam,Rue De Sèvres,5,3.5,€€
E,West,4.8544049,52.3640938,de-postkamer-amsterdam,De Postkamer,5,3.0,€
E,West,4.85218,52.3702011,buon-giorno-espressobar-amsterdam-2,Buon Giorno Espressobar,1,4.0,€
E,West,4.86517,52.3595085,tennisclub-kattenlaan-amsterdam,Tennisclub Kattenlaan,4,4.0,€€
E,West,4.8611284,52.3481903,just-heat-me-amsterdam,Just Heat Me,1,4.0,
E,West,4.8767509,52.3629684,sawaddee-ka-thai-amsterdam-2,Sawaddee Ka Thai,15,3.0,€€
E,West,4.8798261,52.3779564,l-albatros-amsterdam,l'albatros,2,4.0,
E,West,4.8786302,52.3900719,johnnys-pizza-express-amsterdam,Johnny's Pizza Express,1,3.0,
E,West,4.85529,52.38266,ocean-sushi-amsterdam,Ocean Sushi,3,3.5,€€
E,West,4.85564848536,52.3579284568,ter-brugge-amsterdam,Ter Brugge,13,3.0,€€
E,West,4.85124441373,52.3696497224,poco-poco-amsterdam,Poco Poco,1,1.0,
E,West,4.84949153983,52.3496765107,warung-min-amsterdam,Warung Min,1,5.0,€
E,West,4.8487522,52.351488,el-hefnawy-amsterdam,El Hefnawy,2,2.0,€
E,West,4.87733321182,52.348248623,brooks-amsterdam,Brooks,1,2.0,
E,West,4.8744324,52.3777612,quies-tea-amsterdam,Quies Tea,1,4.0,€€
E,West,4.8530536,52.351944,mr-mix-amsterdam,MR MIX,2,3.0,€€
E,West,4.87148283071,52.3680760209,meneer-en-mevrouw-keus-amsterdam,Meneer & Mevrouw Keus,1,4.0,€€
E,West,4.8674698,52.3677216,the-rough-kitchen-amsterdam,The Rough Kitchen,1,4.0,
E,West,4.85967,52.3651399,meneer-de-wit-heeft-honger-amsterdam,Meneer De Wit Heeft Honger,4,3.5,
E,West,4.8612292,52.3663662,piri-reis-amsterdam,Piri Reis,5,3.5,€€
E,West,4.87018983811,52.3612600237,boezemvriend-amsterdam-2,Boezemvriend,2,5.0,
E,West,4.8666244,52.3702927,loussos-wiedijk-amsterdam,Loussos Wiedijk,1,3.0,
E,West,4.8748851,52.3846703,steakhouse-pizzeria-bergo-amsterdam,Steakhouse Pizzeria Bergo,3,4.5,€
E,West,4.85074,52.3511543,sushi-house-amsterdam-2,Sushi House,2,4.5,€€
E,West,4.87385,52.35774,paprika-csárda-amsterdam,Paprika Csárda,1,3.0,
E,West,4.85800376812,52.3443037177,vascobelo-amsterdam-9,Vascobelo,1,3.0,€
E,West,4.87100079342,52.3752021826,café-020-amsterdam,Café 020,1,4.0,
E,West,4.8780036,52.3592644,oriënt-amsterdam-3,Oriënt,2,3.5,
E,West,4.8698254,52.3615074,ah-sang-amsterdam,Ah Sang,1,3.0,
E,West,4.8648496,52.3616524,vibes-cafe-amsterdam,Vibes Cafe,2,3.5,€€
E,West,4.8790302,52.3721886,pizzeria-lagonda-amsterdam,Pizzeria Lagonda,1,3.0,
E,West,4.8484879,52.3782117598,king-kumpir-amsterdam-2,King Kumpir,1,3.0,€
E,West,4.8503499,52.3508911,tastoe-amsterdam,Tastoe,4,2.5,
E,West,4.84691,52.3784294,kfc-amsterdam-9,KFC,1,2.0,€€
E,West,4.8743501,52.3843002,café-kamerz-amsterdam,Café Kamerz,2,3.5,
E,West,4.8733394,52.3717432,de-heeren-van-nassau-amsterdam,De Heeren Van Nassau,1,4.0,
E,West,4.8622093,52.3648126,tropical-brasil-amsterdam,Tropical Brasil,4,3.5,
E,West,4.8742151,52.3676872,tandoori-express-amsterdam,Tandoori Express,1,4.0,€€€
E,West,4.8785081,52.3821678,eethuis-long-chie-amsterdam,Eethuis Long Chie,1,1.0,€€
E,West,4.8602649942,52.3448209278,big-mammy-burger-amsterdam,Big Mammy Burger,2,2.0,€€
E,West,4.8583899,52.3445396,fachada-amsterdam,Fachada,5,3.0,€€
E,West,4.86263506114,52.3613472457,café-mees-amsterdam-2,Café Mees,1,5.0,
E,West,4.8772068,52.3478165,gauchos-amsterdam-2,Gauchos,9,3.5,€€€
E,West,4.8673408,52.36793,meat-west-amsterdam,Meat West,7,3.5,€€€€
E,West,4.8707976,52.3712349,damla-amsterdam,Damla,1,2.0,
E,West,4.8795338,52.3793983,fonduerie-amsterdam,Fonduerie,1,2.0,€€
E,West,4.87173,52.3683,bistro-döner-amsterdam,Bistro Döner,1,5.0,€
E,West,4.8734298,52.3696785,snackbar-sahara-amsterdam,Snackbar Sahara,1,3.0,€€
E,West,4.8752004,52.3847182,doardi-amsterdam,Doardi,5,4.0,€
E,West,4.8774695,52.3727341,murugan-amsterdam,Murugan,2,3.5,
E,West,4.86471176147,52.3610038848,grand-aspendos-amsterdam,Grand Aspendos,5,4.0,€€
E,West,4.8610945,52.3641968,meos-colosseum-amsterdam,Meo's Colosseum,3,2.5,
E,West,4.8785601,52.3499908,minimarkt-amsterdam,MiniMarkt,3,4.5,€€€
E,West,4.8641992,52.3598061,restaurant-addis-ababa-amsterdam,Restaurant Addis Ababa,11,3.5,€€
E,West,4.87446326762,52.3899432922,het-bijzondere-hoekje-amsterdam,Het Bijzondere Hoekje,1,3.0,€
E,West,4.8544836,52.350769,i-k-fresh-en-more-amsterdam,I.K. Fresh & More,1,3.0,
E,West,4.87276,52.3802,mauresque-amsterdam-2,Mauresque,1,4.0,
E,West,4.85065999286,52.3698633284,wrap-n-rolling-amsterdam,Wrap 'n' Rolling,1,4.0,
E,West,4.86777083684,52.3673771233,kanarie-club-amsterdam,Kanarie Club,4,2.5,
E,West,4.85754511539,52.3461725101,café-carbon-zuid-amsterdam,Café Carbon Zuid,5,4.0,€€€
E,West,4.86501216888,52.3460617065,multifood-express-amsterdam,Multifood Express,1,4.0,€€
E,West,4.873291,52.3747826,mano-a-mano-amsterdam,Mano A Mano,10,3.0,€€€
E,West,4.8789711,52.373009,amigo-grill-amsterdam,Amigo Grill,1,3.0,€€€
E,West,4.8500371,52.3517456,the-coffeebrand-amsterdam,The Coffeebrand,4,2.5,€
E,West,4.87517,52.36279,automatiek-constantijn-amsterdam-2,Automatiek Constantijn,6,4.0,€€
E,West,4.8551698,52.3613815,mirch-masala-amsterdam,Mirch Masala,1,3.0,
E,West,4.8640599,52.3622398,lunchroom-tamara-amsterdam,Lunchroom Tamara,1,2.0,
E,West,4.85694843578,52.358034697,tawazo-amsterdam,Tawazo,2,3.5,
E,West,4.8669901,52.3760185,febo-amsterdam-24,Febo,1,3.0,
E,West,4.8650198,52.3608208,waroeng-asje-amsterdam,Waroeng Asje,3,3.0,
E,West,4.8785601,52.3909416,bistro-zuidlande-amsterdam,Bistro Zuidlande,1,3.0,
E,West,4.8633504,52.3512611,ii-japanese-deli-amsterdam,ii Japanese Deli,1,5.0,€€
E,West,4.8803280027,52.3588665293,conservatorium-amsterdam-2,Conservatorium,4,3.0,€€€
E,West,4.8784618,52.3648987,eetcafé-compaenen-amsterdam-2,Eetcafé Compaenen,5,3.0,€€
E,West,4.8797598,52.3690758,cibo-and-vino-amsterdam,Cibo & Vino,5,3.5,€€
E,West,4.85272,52.3916,westpoort-amsterdam,Westpoort,1,2.0,
E,West,4.8736944,52.3756294,pizzeria-mama-mia-amsterdam,Pizzeria Mama Mia,3,4.0,€€
E,West,4.8773098,52.3479881,new-china-city-amsterdam,New China City,8,2.5,€€€
E,West,4.8608627,52.3751106,wanica-exotics-amsterdam,Wanica Exotics,3,2.5,
E,West,4.8724785,52.3670197,yuki-amsterdam-2,Yuki,1,3.0,
E,West,4.878516,52.3691222,agra-eethuis-amsterdam,Agra Eethuis,1,3.0,
E,West,4.87539475206,52.3681907449,sushi-sakura-amsterdam,Sushi Sakura,8,3.0,€€
E,West,4.8729195,52.367323,café-amoi-amsterdam,Café Amoi,1,4.0,€€
E,West,4.8743367,52.3741417,mr-india-amsterdam,Mr. India,2,3.0,
E,West,4.8796301,52.3733101,bienvenue-amsterdam,Bienvenue,1,1.0,
E,West,4.8761419,52.3727794,andas-bar-amsterdam,Andas Bar,2,2.0,
E,West,4.878993,52.374873,speciaal-amsterdam,Speciaal,1,3.0,
E,West,4.8718266,52.3672867,snackbar-petit-restaurant-corner-inn-amsterdam,Snackbar Petit-Restaurant Corner Inn,3,2.5,
E,West,4.8485298,52.3486404,snackbar-t-vogeltje-amsterdam,Snackbar 't Vogeltje,2,2.5,€
E,West,4.8602901,52.3504486,sushi-kings-amsterdam,Sushi Kings,8,3.5,€€€
E,West,4.8793102,52.3734383,chow-amsterdam,Chow,6,3.0,€€€
E,West,4.8786377,52.3727543,ton-ton-amsterdam,Ton Ton,2,2.5,
E,West,4.8787279,52.3820496,top-thai-thuis-amsterdam,Top Thai Thuis,1,2.0,
E,West,4.8562527,52.3530294,scottadito-amsterdam,Scottadito,1,5.0,
E,West,4.8748639226,52.363298025,burgerlijk-amsterdam,Burgerlijk,2,2.0,€€
E,West,4.85837134813,52.3583265695,frenzi-cucina-amsterdam,Frenzi Cucina,5,3.5,€€
E,West,4.8787899,52.3898582,lunchroom-snackbar-ijssalon-jelle-amsterdam,Lunchroom Snackbar Ijssalon Jelle,3,4.0,
E,West,4.8696518,52.3702774,parsleyclub-cooking-jazz-amsterdam,"Parsleyclub, Cooking-jazz",1,4.0,
E,West,4.8648545,52.3616446,trattoria-da-damiano-amsterdam,Trattoria da Damiano,1,3.0,
E,West,4.8731689,52.3736458,de-aardige-pers-amsterdam,De Aardige Pers,5,4.0,€€
E,West,4.85136307776,52.3509105058,the-happy-bull-amsterdam,The Happy Bull,1,4.0,
E,West,4.847823,52.37853,1-tat-döner-amsterdam,1 Tat Döner,1,4.0,
E,West,4.8751998,52.3847084,mei-lok-amsterdam,Mei Lok,1,4.0,
E,West,4.8672919,52.3657482,doppio-espresso-amsterdam,Doppio espresso,4,3.5,€
E,West,4.85154436132,52.3701462802,everts-snack-bar-amsterdam,Evert's Snack Bar,1,3.0,
E,West,4.8760074339,52.3728897991,lijn-10-café-amsterdam-2,Lijn 10 Café,1,5.0,
E,West,4.8741002,52.3640213,juice-en-salad-café-amsterdam-3,Juice & Salad Café,10,3.0,€€
E,West,4.8562245,52.3529497,joy-luck-express-amsterdam,Joy Luck Express,2,2.0,
E,West,4.8802853,52.3697281,bromo-indah-amsterdam,Bromo Indah,2,2.5,€€
E,West,4.8729285,52.371386,thai-kitchen-amsterdam,Thai Kitchen,1,4.0,
E,West,4.8757615,52.3653611,pizza-amsterdam-amsterdam,Pizza Amsterdam,3,2.5,
E,West,4.8541143,52.3807381,de-vliegende-schotel-amsterdam,De Vliegende Schotel,1,2.0,
E,West,4.84657,52.3783188,asian-plaza-amsterdam-amsterdam,Asian Plaza Amsterdam,4,2.0,€€€
E,West,4.86593,52.36556,asian-king-sushi-bar-amsterdam-3,Asian king sushi Bar,1,2.0,
E,West,4.8748102,52.3679886,meneer-temaki-amsterdam,Meneer Temaki,2,3.5,
E,West,4.85447142273,52.3508277687,warung-moen-amsterdam,Warung Moen,1,3.0,
E,West,4.8552699,52.3825607,snackbar-samar-amsterdam-2,Snackbar Samar,1,2.0,
E,West,4.8806,52.3726616,mastercare-shop-and-rawsuperfood-cafe-amsterdam,Mastercare Shop & RawSuperfood Cafe,2,4.0,
E,West,4.8673408,52.36793,brasserie-halte-3-amsterdam,Brasserie Halte 3,9,3.5,€€€
E,West,4.866833,52.365955,mc-donalds-amsterdam-4,Mc Donalds,1,4.0,€
E,West,4.87253,52.3622246,dionysos-amsterdam,Dionysos,3,3.5,€€
E,West,4.8504587,52.357103,chamas-amsterdam,Chamas,2,3.5,€€€
E,West,None,None,wijs-west-amsterdam,Wijs West,1,4.0,€€
E,West,4.86200337437,52.3646861663,infinity-amsterdam,Infinity,2,2.0,
E,West,4.87573,52.3841209,proef-azie-amsterdam,Proef Azie,1,3.0,
E,West,4.856288,52.3529587,sotto-pizza-amsterdam,Sotto Pizza,1,4.0,€€
E,West,4.85064,52.36519,de-huiskamer-van-rembrandt-amsterdam,De huiskamer van Rembrandt,1,5.0,
E,West,4.8773513,52.3648415,pizzeria-monte-bianco-amsterdam,Pizzeria Monte Bianco,1,3.0,
E,West,4.8735671,52.3559456,sal-gorda-amsterdam-2,Sal Gorda,4,3.5,€€
E,West,4.8681796668,52.3441951653,de-brug-amsterdam,De Brug,1,3.0,
E,West,4.8655701,52.3701286,spelletjes-café-klaveren-2-amsterdam,Spelletjes Café Klaveren 2,5,3.5,€
E,West,4.8492751,52.354195,snackbar-wannie-amsterdam,Snackbar Wannie,3,2.5,€€
E,West,4.87497,52.36105,het-bierbordes-amsterdam-2,Het Bierbordes,1,3.0,€€
E,West,4.8673201,52.3675613,uit-de-keuken-amsterdam,Uit de Keuken,1,2.0,
E,West,4.8645,52.3701706,in-de-baars-amsterdam,In de Baars,2,3.5,
E,West,4.8660110913,52.36579713,simit-sarayi-amsterdam-2,Simit Sarayi,7,3.5,€€
E,West,4.85005617142,52.3516663962,kebab-house-baran-amsterdam,Kebab House Baran,1,3.0,€
E,West,4.8676968,52.3701706,rottiserie-amsterdam,Rottiserie,1,3.0,€€
E,West,4.8762398,52.3628311,dominos-amsterdam-2,Domino's,1,5.0,
E,West,4.8494747,52.3504926024,dominos-amsterdam-7,Domino's,1,4.0,
E,West,4.8729917,52.3715888,burrito-amsterdam,Burrito,1,2.0,
E,West,4.8546805,52.3706169,wok-on-fire-amsterdam,Wok On Fire,2,3.0,€
E,West,4.87819,52.3633995,mugen-amsterdam,MuGen,1,1.0,
E,West,4.8514297,52.3699818,genki-café-amsterdam,Genki Café,2,3.5,
E,West,4.8559499,52.35392,maxi-steaks-amsterdam,Maxi Steaks,1,4.0,
E,West,4.8699136,52.3703423,mother-india-amsterdam,Mother India,6,3.0,€€
E,West,4.87661,52.3968,cafe-cobalt-amsterdam,Cafe cobalt,1,5.0,
K,Zuid,4.88495618841,52.3634679502,the-pantry-amsterdam,The Pantry,165,4.5,€€
K,Zuid,4.8871849,52.3536201,cannibale-royale-amsterdam-2,Cannibale Royale,61,4.5,€€
K,Zuid,4.8673697,52.3539127,vida-amsterdam-amsterdam,VIDA Amsterdam,11,4.5,€€
K,Zuid,4.8916078,52.3515573,omelegg-amsterdam-6,Omelegg,184,4.5,€€
K,Zuid,4.8842951,52.35435,café-loetje-amsterdam-2,Café Loetje,121,4.0,€€
K,Zuid,4.87793,52.35812,pompa-amsterdam,Pompa,62,4.0,€€
K,Zuid,4.87917974648,52.331266936,takumi-burger-en-lobster-bar-amsterdam-2,Takumi Burger & Lobster Bar,6,4.0,€€
K,Zuid,4.88064,52.341671,restaurant-as-amsterdam,Restaurant AS,20,4.5,€€€€
K,Zuid,4.88995324612,52.3573576574,bakers-en-roasters-amsterdam,Bakers & Roasters,265,4.5,€€
K,Zuid,4.8911567,52.3512085,café-gambrinus-amsterdam-2,Café Gambrinus,23,4.5,€€
K,Zuid,4.89310057897,52.3558759137,de-wasserette-oud-zuid,De Wasserette,57,4.5,€€
K,Zuid,4.86950037556,52.3538983931,ristorante-bellavista-amsterdam,Ristorante Bellavista,14,4.5,€€
K,Zuid,4.87089,52.33756,olivers-amsterdam,Oliver's,14,4.0,€€
K,Zuid,4.8758673,52.3630936,kartika-amsterdam,Kartika,122,4.5,€€
K,Zuid,4.887392,52.3521271,restaurant-jaspers-amsterdam,Restaurant Jaspers,19,5.0,€€€
K,Zuid,4.8775272,52.3599548,the-seafood-bar-amsterdam-oud-zuid,The Seafood Bar,111,4.5,€€€
K,Zuid,4.88993237045,52.3553915511,warung-spang-makandra-amsterdam,Warung Spang Makandra,89,4.0,€€
K,Zuid,4.8924275,52.3428098,eetcafe-knabbel-en-babbel-amsterdam-2,Eetcafe Knabbel en Babbel,6,4.5,€€
K,Zuid,4.8729343,52.3623352,gollems-proeflokaal-amsterdam,Gollem's Proeflokaal,43,4.5,€€
K,Zuid,4.8847499,52.3242607,hwa-won-amsterdam,Hwa Won,6,4.5,€€
K,Zuid,4.876262,52.331185,tanuki-izakaya-amsterdam,Tanuki Izakaya,9,3.5,€€
K,Zuid,4.893619,52.354558,bocas-amsterdam-2,Boca's,81,4.5,€€
K,Zuid,4.8758149,52.330871,saigon-cafe-amsterdam-2,Saigon Cafe,7,4.0,€€
K,Zuid,4.87908840179,52.3308416081,gusto-di-casto-amsterdam,Gusto di Casto,10,4.0,€€
K,Zuid,4.89061910056,52.3556661226,onigiri-ya-amsterdam-3,Onigiri YA!,11,5.0,€
K,Zuid,4.88414805382,52.3594938436,rijks-amsterdam-3,Rijks,33,4.0,€€€€
K,Zuid,4.89121,52.34572,feduzzi-amsterdam,Feduzzi,17,4.5,€€
K,Zuid,4.8707466,52.355545,traiteur-en-brasserie-van-dam-amsterdam,Traiteur en Brasserie Van Dam,16,4.5,€€
K,Zuid,4.8924011826,52.3554505188,the-butcher-amsterdam,The Butcher,118,4.0,€€
K,Zuid,4.8734664,52.3554975,valerius-amsterdam-4,Valerius,33,4.5,€€
K,Zuid,4.891156,52.345337,t-vliegertje-amsterdam-2,'t Vliegertje,14,4.0,€€
K,Zuid,4.87360397197,52.3360511789,bolenius-amsterdam,Bolenius,21,4.0,€€€€
K,Zuid,4.8773696,52.3635167,diverto-amsterdam,Diverto,16,5.0,€€€
K,Zuid,4.89363,52.34858,sazanka-amsterdam,Sazanka,15,4.5,€€€€
K,Zuid,4.8885299,52.3567402,van-t-spit-amsterdam-2,Van 't Spit,7,5.0,€€
K,Zuid,4.8849454,52.3642807,wurst-en-schnitzelhaus-amsterdam,Wurst & Schnitzelhaus,85,4.5,€€
K,Zuid,4.88110951624,52.3625797971,de-vier-pilaren-amsterdam,De Vier Pilaren,63,4.0,€€
K,Zuid,4.887517,52.3547363,juuls-amsterdam,Juuls,17,4.5,€€€
K,Zuid,4.8742846,52.3623078,one-dim-sum-amsterdam,One Dim Sum,14,4.5,€€
K,Zuid,4.891788,52.357177,barça-amsterdam-2,Barça,48,4.0,€€
K,Zuid,4.8737102,52.3404808,de-blauwe-engel-amsterdam,De Blauwe Engel,14,3.5,€€
K,Zuid,4.88872445298,52.3526194195,sapporo-ramen-sora-amsterdam,Sapporo Ramen Sora,9,4.5,€€
K,Zuid,4.869188,52.3542135,carter-bar-en-kitchen-amsterdam,Carter Bar & Kitchen,10,4.5,€€€
K,Zuid,4.8727102,52.3402901,wagamama-amsterdam,Wagamama,20,3.5,€€
K,Zuid,4.8888722,52.3576034,frnzy-amsterdam,FRNZY,14,4.5,€€
K,Zuid,4.8902836,52.3597832,café-brecht-amsterdam-3,Café Brecht,53,4.5,€€
K,Zuid,4.89077096997,52.355066792,pho-91-amsterdam,Pho 91,67,4.0,€€
K,Zuid,4.891429,52.351605,volt-amsterdam,Volt,22,4.0,€€
K,Zuid,4.87209310837,52.3514351478,robertos-restaurant-amsterdam,Roberto's Restaurant,14,4.5,€€€€
K,Zuid,4.8886399,52.3545303,restaurant-orontes-amsterdam,Restaurant Orontes,13,4.5,€€
K,Zuid,4.887819,52.354454,izakaya-amsterdam,Izakaya,45,4.0,€€€
K,Zuid,4.86773343306,52.3606090728,tomatillo-amsterdam,Tomatillo,49,4.0,€€
K,Zuid,4.893641,52.3548508,de-duvel-eetcafé-amsterdam-2,De Duvel Eetcafé,25,4.0,€€
K,Zuid,4.872623,52.3406181,sushi-time-amsterdam,Sushi Time,7,4.5,€€
K,Zuid,4.890622,52.354704,pasta-pasta-amsterdam-2,Pasta Pasta,23,4.0,€€
K,Zuid,4.8887,52.3635483,lombardos-amsterdam,Lombardo's,66,4.5,€€
K,Zuid,4.8606395,52.3485939,marathonweg-amsterdam-2,Marathonweg,18,4.0,€€
K,Zuid,4.88041207194,52.3557591621,zest-for-life-amsterdam,Zest for life,8,5.0,€€
K,Zuid,4.89215582584,52.356625077,mamouche-amsterdam,Mamouche,23,4.5,€€€
K,Zuid,4.87077,52.3368988,mech-make-and-take-amsterdam,Mech Make & Take,11,4.5,€
K,Zuid,4.8813258,52.3538031,brasserie-van-baerle-amsterdam,Brasserie Van Baerle,13,4.5,€€€
K,Zuid,4.89101160171,52.3574026871,taj-amsterdam-2,Taj,49,4.5,€€
K,Zuid,4.8765635,52.3632884,de-ebeling-amsterdam-2,De Ebeling,33,4.0,€€
K,Zuid,4.8710251,52.3558655,brasserie-de-joffers-amsterdam,Brasserie De Joffers,21,4.0,€€
K,Zuid,4.8891602,52.3640709,red-amsterdam,Red,46,4.5,€€€
K,Zuid,4.8904438,52.356987,cafe-kingfisher-amsterdam,Cafe Kingfisher,27,4.0,€€
K,Zuid,4.88417547699,52.3631848554,players-amsterdam-4,Players,41,4.5,€€
K,Zuid,4.89157513971,52.3562602946,orestis-taverna-amsterdam,Oresti's Taverna,22,4.0,€€
K,Zuid,4.881092,52.354926,renzos-amsterdam,Renzo's,16,4.0,€€
K,Zuid,4.8618016,52.3623683,staring-at-jacob-amsterdam,Staring At Jacob,48,4.0,€€
K,Zuid,4.8928261,52.3557892,pilsvogel-amsterdam-2,Pilsvogel,25,4.0,€€
K,Zuid,4.88028,52.3560219,solo-eten-and-drinken-amsterdam,Solo Eten & Drinken,20,4.0,€€
K,Zuid,4.8847198,52.3242416,bellini-amsterdam,Bellini,10,4.0,€€€€
K,Zuid,4.8911953,52.3517113,mangiancora-amsterdam,Mangiancora,11,4.5,€
K,Zuid,4.88416,52.364769,maoz-amsterdam-6,Maoz,46,4.0,€
K,Zuid,4.8913399,52.34682,l-angolo-italiano-amsterdam,L' angolo italiano,6,5.0,€€€
K,Zuid,4.880605,52.3556639,l-entrecôte-et-les-dames-amsterdam-2,L'Entrecôte et les Dames,22,4.0,€€€
K,Zuid,4.8926,52.35588,donnies-amsterdam,Donnies,5,5.0,€
K,Zuid,4.86527823988,52.3464492784,eetcafé-de-hut-amsterdam-2,Eetcafé De Hut,17,4.0,€€
K,Zuid,4.8745899,52.3638992,zouk-amsterdam,Zouk,27,4.0,€€
K,Zuid,4.8903899,52.3446617,vis-aan-de-schelde-amsterdam,Vis aan de Schelde,22,4.5,€€€€
K,Zuid,4.8772101,52.3470497,eetcafé-fidelio-amsterdam-2,Eetcafé Fidelio,22,3.5,€€
K,Zuid,4.884726,52.3635559,de-blauwe-hollander-amsterdam,De Blauwe Hollander,32,4.0,€€
K,Zuid,4.8920102,52.3623695,de-fles-amsterdam,De Fles,22,4.0,€€
K,Zuid,4.8710234,52.3559767,di-bruno-amsterdam,Di Bruno,5,5.0,€€
K,Zuid,4.8879128,52.3521996,thai-deum-amsterdam,Thai Deum,30,4.0,€€
K,Zuid,4.8906102,52.345211,7-amsterdam-2,@ 7,29,4.0,€€
K,Zuid,4.8804731,52.3550453,bark-amsterdam,Bark,14,4.0,€€€
K,Zuid,4.8742208,52.364727,pastis-amsterdam,Pastis,11,4.0,€€
K,Zuid,4.8597498,52.352169,affourtit-eten-and-drinken-amsterdam,Affourtit Eten & Drinken,13,4.0,€€
K,Zuid,4.8770599,52.3319016,ruby-amsterdam,Ruby,9,3.5,€€
K,Zuid,4.89144165069,52.3319926516,rosarium-amsterdam,Rosarium,6,3.5,€€€
K,Zuid,4.89069032527,52.3579121307,café-berkhout-amsterdam-2,Café Berkhout,16,4.0,€€
K,Zuid,4.8736434,52.3619499,khorat-top-thai-amsterdam,Khorat Top Thai,12,4.0,€€
K,Zuid,4.8887501,52.3547821,nieuw-albina-amsterdam,Nieuw Albina,7,4.5,€
K,Zuid,4.8919659,52.3562508,restaurant-zazas-amsterdam,Restaurant Zaza's,32,4.5,€€€
K,Zuid,4.8721395,52.3544781,cafe-verhulst-amsterdam,Cafe Verhulst,4,5.0,€€€
K,Zuid,4.8643823,52.3617249,golden-brown-bar-amsterdam,Golden Brown Bar,19,4.0,€€
K,Zuid,4.89247708412,52.3557663641,brut-de-mer-amsterdam,Brut De Mer,13,4.0,€€€
K,Zuid,4.87206436694,52.3543873721,frietboutique-amsterdam,Frietboutique,9,4.0,€
K,Zuid,4.8839898,52.3642693,stoop-and-stoop-eetcafé-amsterdam-2,Stoop & Stoop Eetcafé,22,4.0,€€
K,Zuid,4.8644395,52.3623047,voldaan-amsterdam,Voldaan,13,4.5,€€
K,Zuid,4.8840723,52.3548789,corner-bakery-amsterdam-2,Corner Bakery,22,4.0,€
K,Zuid,4.8699067,52.3372792,dagelijks-lekker-amsterdam,Dagelijks Lekker,6,4.5,€
K,Zuid,4.8913898,52.360569,le-mortier-amsterdam-2,Le Mortier,8,4.5,€
K,Zuid,4.8836273,52.3647836,wok-to-walk-amsterdam-2,Wok to Walk,41,4.0,€€
K,Zuid,4.8630385,52.3638229,holy-ravioli-amsterdam-3,Holy Ravioli,10,4.5,€€
K,Zuid,4.888874,52.3558526,brasserie-sent-amsterdam-2,Brasserie SenT,11,4.0,€€€
K,Zuid,4.8704801,52.3557892,willems-amsterdam-13,Willems,9,4.0,€€
K,Zuid,4.8781121,52.3562756,chang-i-amsterdam,CHANG-I,10,4.5,€€€
K,Zuid,4.8862176,52.3650856,los-pilones-amsterdam-2,Los Pilones,52,4.0,€€
K,Zuid,4.8828316,52.3646544,green-grill-en-bbq-amsterdam,Green Grill & BBQ,13,4.0,€€
K,Zuid,4.88061,52.3555984,bouf-amsterdam,Bouf,12,4.0,€€€
K,Zuid,4.8850698,52.3627396,restaurant-dubbel-amsterdam,Restaurant Dubbel,18,4.0,€€
K,Zuid,4.8910494,52.3449478,sapporo-amsterdam,Sapporo,9,4.0,€€€€
K,Zuid,4.8884039,52.363369,soup-en-zo-amsterdam,Soup en Zo,37,4.5,€
K,Zuid,4.8873056,52.3524041,maydanoz-amsterdam,Maydanoz,6,4.5,€€
K,Zuid,4.86701934312,52.3462195719,the-red-sun-amsterdam,The Red Sun,20,4.0,€€€€
K,Zuid,4.85896634816,52.3449058315,cucina-casalinga-amsterdam,Cucina Casalinga,3,4.5,
K,Zuid,4.87199334763,52.3545677709,le-pain-quotidien-oud-zuid-amsterdam,Le Pain Quotidien Oud Zuid,25,4.0,€€
K,Zuid,4.86386,52.36263,soul-burger-amsterdam,Soul Burger,6,4.5,€€
K,Zuid,4.8881798,52.3607292,bar-café-mankind-amsterdam-2,Bar-Café Mankind,7,4.5,
K,Zuid,4.88634844826,52.3540447202,ristorante-due-napoletani-amsterdam,Ristorante Due Napoletani,8,4.0,€
K,Zuid,4.8672810828,52.3634795252,lab111-amsterdam,LAB111,15,4.0,€€
K,Zuid,4.8804765,52.3641281,de-smoeshaan-amsterdam,De Smoeshaan,9,4.0,€€
K,Zuid,4.88037,52.35881,blushing-amsterdam,Blushing,33,3.5,€€
K,Zuid,4.89177,52.34351,reborn-creative-asian-restaurant-amsterdam,Reborn Creative Asian Restaurant,3,4.5,
K,Zuid,4.8903,52.36504,restaurant-spelt-amsterdam,Restaurant Spelt,16,4.5,€€€
K,Zuid,4.8792214,52.3567924,brasserie-de-keyzer-amsterdam,Brasserie de Keyzer,15,4.0,€€€€
K,Zuid,4.8918719,52.3617477,de-myrabelle-amsterdam,De Myrabelle,22,4.0,€€
K,Zuid,4.8754201,52.3317299,delikeet-amsterdam,Delikeet,2,4.0,
K,Zuid,4.8752599,52.3130417,alexandros-amstelveen,Alexandros,9,4.0,€€
K,Zuid,4.89072204553,52.3565882106,the-seafood-bar-amsterdam-2,The Seafood Bar,6,4.5,€€€
K,Zuid,4.88900715577,52.3622912545,buffet-van-odette-amsterdam,Buffet van Odette,66,4.0,€€
K,Zuid,4.88489223015,52.3628228116,castell-amsterdam,Castell,60,4.0,€€€
K,Zuid,4.88269,52.3613701,momo-amsterdam,Momo,53,3.5,€€€
K,Zuid,4.876166,52.343101,cafe-sud-amsterdam-2,Cafe Sud,1,5.0,
K,Zuid,4.89115,52.3454094,chinees-specialiteiten-restaurant-oceania-amsterdam,Chinees Specialiteiten Restaurant Oceania,14,3.5,€€€€
K,Zuid,4.8805688,52.362245,midtown-grill-amsterdam-2,Midtown Grill,16,4.5,€€€€
K,Zuid,4.8918729,52.3617363,panini-amsterdam-2,Panini,26,4.5,€€
K,Zuid,4.8829399,52.35253,restaurant-elements-amsterdam,Restaurant Elements,5,4.0,€
K,Zuid,4.8683791,52.3263853,sandwichshop-sal-meijer-amsterdam,Sandwichshop Sal Meijer,8,4.5,€
K,Zuid,4.8724404,52.3377812,restaurant-de-nieuwe-poort-amsterdam,Restaurant De Nieuwe Poort,3,4.5,€€€
K,Zuid,4.8903098,52.3540993,manamana-amsterdam-2,ManaMana,13,4.0,€€€
K,Zuid,4.8660102,52.3605995,daarbaand-amsterdam-2,Daarbaand,15,4.0,€€
K,Zuid,4.8932953,52.3555166,café-flamingo-amsterdam-2,Café Flamingo,14,4.0,€€
K,Zuid,4.8935657,52.3549728,café-flinck-amsterdam-2,Café Flinck,21,4.0,€€
K,Zuid,4.8687067,52.3542786,scala-della-pasta-amsterdam,Scala Della Pasta,8,4.0,€€
K,Zuid,4.8881154,52.3544388,venkel-amsterdam,Venkel,43,4.5,€€
K,Zuid,4.8920479,52.3531036,dèsa-amsterdam-3,Dèsa,10,4.0,€€
K,Zuid,4.8915801,52.3436699,takara-amsterdam,Takara,8,4.0,€€€
K,Zuid,4.89113,52.3452415,pizzeria-sicilia-amsterdam,Pizzeria Sicilia,5,4.0,€€
K,Zuid,4.89363,52.3488007,ciel-bleu-amsterdam,Ciel Bleu,30,4.5,€€€€
K,Zuid,4.87888,52.3261604,restaurant-hbaron-amsterdam,Restaurant H'Baron,3,4.5,
K,Zuid,4.88468,52.32444,khan-amsterdam-9,Khan,1,5.0,€€
K,Zuid,4.89201424842,52.3510045813,the-meets-eatery-amsterdam,The  Meets Eatery,16,4.0,€€
K,Zuid,4.8826704,52.3540039,en-pluche-amsterdam,En Pluche,12,4.0,€€€
K,Zuid,4.89363,52.3488007,serre-restaurant-amsterdam,Serre Restaurant,7,4.5,€€€€
K,Zuid,4.8657398,52.3459892,bagel-nash-amsterdam,Bagel Nash,9,4.0,€
K,Zuid,4.8872414,52.3611259,levant-amsterdam,Levant,8,4.5,€€€
K,Zuid,4.8794599,52.3630905,san-george-amsterdam,San George,11,4.0,€€€
K,Zuid,4.89044,52.3446799,the-corner-amsterdam,The Corner,1,5.0,
K,Zuid,4.8844783,52.3353582,mason-street-amsterdam,Mason Street,3,3.5,€€
K,Zuid,4.8591032,52.3585052,muang-thai-amsterdam,Muang Thai,7,4.0,€€
K,Zuid,4.8915496,52.3555145,restaurant-barrique-amsterdam,Restaurant Barrique,8,4.5,€€€
K,Zuid,4.8847299,52.3244896,kokohili-amsterdam,Kokohili,4,4.0,€€€
K,Zuid,4.8845458,52.3630447,in-de-buurt-amsterdam,In de Buurt,10,4.5,€€€
K,Zuid,4.8579941,52.3586082,kaap-de-goede-hoop-amsterdam,Kaap De Goede Hoop,6,4.5,€€
K,Zuid,4.8633753,52.3528804,george-bistro-bistro-amsterdam,George Bistro Bistro,14,3.5,€€
K,Zuid,4.88149309151,52.3582731295,le-tambourin-amsterdam,Le Tambourin,6,4.0,€€
K,Zuid,4.8917197,52.351621,cc-muziekcafé-amsterdam-3,CC Muziekcafé,16,4.5,€
K,Zuid,4.875,52.3569069,café-gruter-amsterdam-2,Café Gruter,14,3.5,€€
K,Zuid,4.88978,52.3406906,strandzuid-amsterdam,Strandzuid,11,3.0,€€
K,Zuid,4.8754349,52.3554911,le-4-stagioni-amsterdam,Le 4 stagioni,24,3.5,€€
K,Zuid,4.89115094883,52.3531727995,sugo-amsterdam-2,Sugo,11,4.5,€
K,Zuid,4.8878302,52.3547223,braque-amsterdam-2,Braque,14,4.0,€€€
K,Zuid,4.8638,52.3446007,umeno-amsterdam,Umeno,5,4.0,
K,Zuid,4.88365,52.36473,vlaamse-frites-amsterdam,Vlaamse Frites,7,4.5,€
K,Zuid,4.8922604,52.3531291,par-hasard-amsterdam-amsterdam,Par Hasard Amsterdam,7,3.5,€
K,Zuid,4.887358,52.3617178,café-hans-en-grietje-amsterdam,Café Hans en Grietje,16,3.5,€€
K,Zuid,4.884663,52.3351724992,bagels-en-beans-amsterdam-27,Bagels & Beans,2,4.0,
K,Zuid,4.87838734658,52.3579244666,small-talk-amsterdam-5,Small Talk,27,3.5,€€
K,Zuid,4.88951693615,52.344466622,hakata-senpachi-amsterdam-2,Hakata Senpachi,18,4.5,€€€
K,Zuid,4.88403,52.36472,crystal-amsterdam,Crystal,13,4.0,€€
K,Zuid,4.8840132,52.3645363,o-sole-mio-amsterdam,O' Sole MIO,8,4.0,€€
K,Zuid,4.85959275767,52.345302987,asian-flavours-amsterdam,Asian Flavours,2,3.5,€€€
K,Zuid,4.8830676,52.3607368,sama-sebo-amsterdam,Sama Sebo,54,3.5,€€€
K,Zuid,4.8778801,52.3286285,halvemaan-amsterdam,Halvemaan,2,4.5,
K,Zuid,4.8885694,52.3570824,japans-delicatessenhuis-zen-amsterdam,Japans Delicatessenhuis Zen,9,4.5,€€€
K,Zuid,4.8827723,52.3647081,de-oesterbar-amsterdam-2,De Oesterbar,17,4.0,€€€
K,Zuid,4.8909798,52.3481293,pizzeria-san-marco-amsterdam,Pizzeria San Marco,13,4.0,€€
K,Zuid,4.8760643,52.3635712,hap-hmm-amsterdam,Hap Hmm,20,4.0,€€
K,Zuid,4.8730102,52.336441,bambou-amsterdam,Bambou,7,3.0,€€
K,Zuid,4.8714903,52.3374946,sla-amsterdam-3,SLA,7,4.5,€€
K,Zuid,4.87753112254,52.3321922061,carrots-en-co-amsterdam,Carrots & Co,2,4.0,
K,Zuid,4.8676782,52.3605995,dish-global-kitchen-amsterdam,Dish Global Kitchen,14,4.0,€€
K,Zuid,4.88915305921,52.3546606869,burgermeester-amsterdam-3,Burgermeester,49,4.0,€€
K,Zuid,4.86054897308,52.3485524376,café-kiebêrt-amsterdam,Café Kiebêrt,19,4.0,€€
K,Zuid,4.8888717,52.3610001,la-cacerola-amsterdam,La Cacerola,7,4.5,€€€
K,Zuid,4.8898526,52.3631827,lavinia-good-food-amsterdam,Lavinia Good Food,41,4.0,€€
K,Zuid,4.8910699,52.3447304,d-overkant-amsterdam,D' Overkant,18,3.5,€€
K,Zuid,4.8731399,52.3368912,dickys-grand-café-amsterdam-2,Dickys Grand Café,9,3.5,€€
K,Zuid,4.8654552,52.3608627,ethiopisch-eethuis-lalibela-amsterdam,Ethiopisch Eethuis Lalibela,21,4.0,€€
K,Zuid,4.86832,52.3259888,bloemenbar-all-good-amsterdam,Bloemenbar All Good,1,5.0,€€
K,Zuid,4.884974,52.3637009,antonios-amsterdam,Antonio's,19,3.5,€€
K,Zuid,4.8864775,52.3621216,de-spiegel-amsterdam,De Spiegel,5,4.5,€€
K,Zuid,4.8888402,52.3559227,da-portare-via-frans-halsstraat-amsterdam-2,Da Portare Via - Frans Halsstraat,17,4.0,€€
K,Zuid,4.8749893,52.3610346,vondelpark3-amsterdam,Vondelpark3,32,3.5,€€
K,Zuid,4.86867268183,52.3463543447,l-arena-amsterdam,l'Arena,8,3.0,€€€
K,Zuid,4.8887137,52.3526371,annes-kitchen-amsterdam,Anne's Kitchen,1,5.0,
K,Zuid,4.8854189,52.363945,japan-inn-yakitori-amsterdam-2,Japan Inn Yakitori,32,4.0,€€
K,Zuid,4.884473,52.359069,cobra-amsterdam,Cobra,24,3.0,€€
K,Zuid,4.8877387,52.3641396,casa-del-gusto-amsterdam,Casa Del Gusto,5,4.5,€
K,Zuid,4.8893123,52.3504677,m-and-ms-tjing-tjing-amsterdam,M & M'S Tjing Tjing,5,4.0,€€
K,Zuid,4.8823199,52.3534317,café-wildschut-amsterdam-2,Café Wildschut,34,3.0,€€
K,Zuid,4.8591317609,52.3641888277,lokaal-edel-amsterdam,Lokaal Edel,17,4.0,€€
K,Zuid,4.86096893087,52.3609444828,dikke-graaf-amsterdam,Dikke Graaf,2,5.0,€€
K,Zuid,4.8924856,52.3596992,sapori-pugliesi-amsterdam,Sapori Pugliesi,3,4.0,€€
K,Zuid,4.8853502,52.3636589,restaurant-granada-amsterdam,Restaurant Granada,12,4.0,€€€
K,Zuid,4.8712099,52.33729,market-33-amsterdam,Market 33,2,4.0,€€
K,Zuid,4.8735399,52.3629799,wilhelmina-amsterdam,Wilhelmina,15,4.0,€€
K,Zuid,4.8758798,52.3621407,anmol-indiaas-amsterdam,Anmol Indiaas,9,4.0,€€
K,Zuid,4.8895076,52.3510993,en-japanese-kitchen-en-sake-bar-amsterdam,EN Japanese Kitchen & Sake Bar,3,4.5,€€€€
K,Zuid,4.8726301,52.3406181,corso-como-amsterdam,Corso Como,4,3.5,
K,Zuid,4.89292,52.34035,restaurant-vandaag-amsterdam,Restaurant Vandaag,18,3.0,€€€
K,Zuid,4.8808491,52.3646999,eat-at-jos-amsterdam-2,Eat At Jo's,10,4.5,€€
K,Zuid,4.85992,52.3255386,tai-yuen-amsterdam,Tai Yuen,2,4.0,
K,Zuid,4.86485,52.34598,la-cucina-di-nonna-francesca-amsterdam,La Cucina Di Nonna Francesca,1,5.0,
K,Zuid,4.8702722,52.3374842,gustavino-restaurant-en-vinoteca-amsterdam,Gustavino,9,3.0,€€€
K,Zuid,4.89097,52.3577,salsa-shop-amsterdam-3,Salsa Shop,9,4.0,€€
K,Zuid,4.86863279273,52.3611517878,fans-kitchen-amsterdam,Fan's Kitchen,4,4.5,
K,Zuid,4.8873916,52.354744,monte-verde-amsterdam,Monte Verde,17,4.0,€€
K,Zuid,4.8924133,52.3614217,gin-neo-amsterdam,GIN NEO,3,4.5,
K,Zuid,4.884033,52.363865,tapas-en-grill-españa-amsterdam,Tapas En Grill España,1,4.0,
K,Zuid,4.87417113333,52.351243375,de-kersentuin-amsterdam,De Kersentuin,2,4.0,€€€
K,Zuid,4.8673902,52.3245583,la-brochette-amsterdam,La Brochette,5,3.5,€€€
K,Zuid,4.87258,52.35888,t-blauwe-theehuis-amsterdam,'t Blauwe Theehuis,40,3.5,€€
K,Zuid,4.8622237,52.3480723,coja-snacks-amsterdam,Coja Snacks,3,4.5,€
K,Zuid,4.8829899,52.3620796,hard-rock-cafe-amsterdam-amsterdam-3,Hard Rock Cafe Amsterdam,90,3.5,€€
K,Zuid,4.8828702,52.3591919,lunch-kiosk-amsterdam,Lunch Kiosk,2,4.0,€
K,Zuid,4.8776846,52.3580476,the-cold-pressed-juicery-amsterdam-2,The Cold Pressed Juicery,19,4.5,€
K,Zuid,4.8908763,52.3569527,simpel-amsterdam,Simpel,10,4.0,€€€
K,Zuid,4.891688,52.358973,de-carrousel-pannenkoeken-amsterdam,De Carrousel Pannenkoeken,24,3.5,€
K,Zuid,4.89321956743,52.3551218418,burgerbar-amsterdam,BurgerBar,9,3.5,€
K,Zuid,4.88486,52.3635499,kop-van-jut-amsterdam,Kop Van Jut,19,4.0,€€
K,Zuid,4.8924799,52.3596611,van-vlaanderen-amsterdam,Van Vlaanderen,12,4.5,€€€€
K,Zuid,4.8643332,52.3459282,sushi-world-amsterdam,Sushi World,2,4.5,€€€
K,Zuid,4.8718474,52.3534713,brasserie-lairesse-amsterdam,Brasserie Lairesse,1,4.0,
K,Zuid,4.8600769,52.3587608,toasty-amsterdam,Toasty!,18,3.5,€
K,Zuid,4.8743024,52.3622894,restaurant-peper-and-zout-amsterdam,Restaurant Peper & Zout,4,4.0,
K,Zuid,4.873,52.33759,koetjes-en-kalfjes-amsterdam,Koetjes en Kalfjes,9,3.5,€€€
K,Zuid,4.85899496824,52.3452692828,eetcafé-le-traffic-amsterdam,Eetcafé Le Traffic,7,3.5,€€
K,Zuid,4.8917599,52.361599,trattoria-thats-amore-amsterdam,Trattoria That's Amore,9,4.0,€€€
K,Zuid,4.85836700665,52.3443866213,jack-dish-amsterdam,Jack Dish,3,3.5,€€
K,Zuid,4.8836298,52.3615303,srikandi-amsterdam,Srikandi,13,4.0,€€€
K,Zuid,4.893409051,52.3529170379,yum-yum-amsterdam,Yum Yum,4,4.0,€€
K,Zuid,4.87572,52.31311,thai-from-sky-amstelveen,Thai From Sky,2,4.5,
K,Zuid,4.87828,52.36486,ciro-passami-l-olio-amsterdam,Ciro Passami L'Olio,12,4.0,€€€
K,Zuid,4.89259,52.3426399,restaurant-toet-anchamon-amsterdam,Restaurant Toet-Anchamon,5,4.0,€€
K,Zuid,4.8988099,52.3635597,bistro-bonjour-amsterdam,Bistro Bonjour,9,4.0,€€€
K,Zuid,4.86339,52.3529701,biscuit-amsterdam,Biscuit,4,3.5,€€
K,Zuid,4.88473,52.36318,grill-steakhouse-mama-amsterdam,Grill Steakhouse Mama,5,4.0,€
K,Zuid,4.87335,52.33819,smullers-amsterdam-3,Smullers,1,4.0,
K,Zuid,4.8884617361,52.3556840721,carels-amsterdam,Carels,4,4.0,
K,Zuid,4.8844757,52.3636017,grill-steakhouse-maya-amsterdam,Grill-Steakhouse Maya,8,1.5,€€€
K,Zuid,4.89161,52.35134,stroom-amsterdam-amsterdam,Stroom Amsterdam,4,3.0,€
K,Zuid,4.86826102595,52.3587003454,groot-melkhuis-amsterdam,Groot Melkhuis,20,3.5,€€
K,Zuid,4.8860102,52.3622704,café-saloon-amsterdam,Café Saloon,15,4.0,€€
K,Zuid,4.8619561,52.3629417,café-lennep-amsterdam-4,Café Lennep,9,3.5,€€
K,Zuid,4.8928199,52.3570213,cotton-cake-amsterdam,Cotton Cake,20,4.5,€€
K,Zuid,4.89240227329,52.3530929892,frites-uit-zuyd-amsterdam-2,Frites uit Zuyd,15,4.0,€
K,Zuid,4.88479280472,52.363571167,davvero-amsterdam,Davvero,3,4.5,€€€
K,Zuid,4.8757348,52.3630638,café-restaurant-toom-amsterdam-2,Café Restaurant Toom,2,4.5,€€€
K,Zuid,4.8938594,52.3533554,surya-amsterdam-2,Surya,14,4.5,€€€
K,Zuid,4.889009,52.3571366,de-waaghals-amsterdam,De Waaghals,21,4.0,€€€
K,Zuid,4.88720206535,52.3547527778,café-binnen-buiten-amsterdam-2,Café Binnen Buiten,23,3.5,€€
K,Zuid,4.8704801,52.3557892,restaurant-spring-amsterdam,Restaurant Spring,4,4.5,€€€
K,Zuid,4.876079,52.341601,baut-zuid-as-amsterdam,Baut Zuid As,1,3.0,€€
K,Zuid,4.8611284,52.3481903,marathon-doner-amsterdam,marathon doner,1,5.0,
K,Zuid,4.88625,52.3538895,de-griekse-taverna-amsterdam,De Griekse Taverna,3,5.0,€€€
K,Zuid,4.8617997,52.3644447,t-saoto-huisje-amsterdam,'t Saoto Huisje,2,5.0,€
K,Zuid,4.88337,52.36227,maximus-amsterdam,Maximus,9,3.0,€€€
K,Zuid,4.88597,52.3631,antonios-ristorante-amsterdam,Antonio's Ristorante,2,5.0,€€
K,Zuid,4.88571372884,52.3638393819,poké-perfect-amsterdam-2,Poké Perfect,4,4.5,€€
K,Zuid,4.89133892246,52.3503740362,loetje-de-pijp-amsterdam,Loetje - De Pijp,1,5.0,
K,Zuid,4.88902579936,52.3574541796,la-boutique-del-caffe-torrefazione-amsterdam,La Boutique del Caffe Torrefazione,41,4.5,€€
K,Zuid,4.88628150494,52.3588180157,brasserie-zuiderbad-amsterdam,Brasserie Zuiderbad,1,5.0,
K,Zuid,4.87748511136,52.3598949565,the-uptown-meat-club-amsterdam,The Uptown Meat Club,14,3.5,€€€€
K,Zuid,4.8773265,52.3592072,maxies-brasserie-amsterdam,Maxie's Brasserie,2,4.0,€€€
K,Zuid,4.88841,52.36325,sterfs-amsterdam-2,Sterfs,2,5.0,
K,Zuid,4.86077193171,52.3484023149,aji-sai-sushi-en-wok-amsterdam,Aji Sai Sushi & Wok,1,5.0,
K,Zuid,4.8579494,52.3601669,hout-amsterdam,Hout,3,4.5,€€€
K,Zuid,4.8612938,52.3607178,indian-express-amsterdam,Indian Express,6,4.0,€€
K,Zuid,4.8903464,52.3563997,dim-sum-now-amsterdam,Dim Sum Now,20,3.0,€€
K,Zuid,4.8712983,52.3553696,restaurant-sardegna-amsterdam,Restaurant Sardegna,18,4.0,€€€
K,Zuid,4.87568,52.313221,sukarasa-amstelveen,Sukarasa,2,4.5,
K,Zuid,4.8716736,52.3367254,kenko-kitchen-amsterdam,Kenko Kitchen,3,3.0,€€
K,Zuid,4.87594590634,52.3310820356,saigon-caphé-amsterdam,Saigon Caphé,2,5.0,€€
K,Zuid,4.8922601,52.3596687,la-storia-della-vita-amsterdam,La Storia Della Vita,8,4.0,€€€
K,Zuid,4.8676171,52.3621483,café-de-toog-amsterdam-2,Café De Toog,9,4.0,€€
K,Zuid,4.8896766,52.3524208,turks-eetcafe-kilim-amsterdam,Turks Eetcafe Kilim,10,4.0,€€
K,Zuid,4.8898501,52.36483,pasta-e-basta-amsterdam,Pasta e  Basta,36,4.0,€€€
K,Zuid,4.8871598,52.3662109,new-york-pizza-amsterdam-3,New York Pizza,12,4.0,€
K,Zuid,4.88918010215,52.3507475202,lust-café-amsterdam-2,Lust Café,10,3.5,€
K,Zuid,4.88260880113,52.3648599377,restaurant-tap-en-dine-amsterdam,Restaurant Tap & Dine,2,5.0,
K,Zuid,4.8847399,52.3480911,the-harbour-club-kitchen-amsterdam,The Harbour Club Kitchen,5,2.0,€€€€
K,Zuid,4.8768501,52.3314095,la-place-amsterdam-4,La Place,1,3.0,
K,Zuid,4.8748771,52.3572556,george-w-p-a-amsterdam,George W.P.A.,42,3.0,€€
K,Zuid,4.88699725702,52.3642834701,kerkstraat-59-amsterdam-2,Kerkstraat 59,6,4.5,€€
K,Zuid,4.8709002,52.3260117,kagetsu-amsterdam-3,Kagetsu,3,3.0,
K,Zuid,4.8744608,52.3568287,restaurant-classico-amsterdam,Restaurant Classico,5,3.5,
K,Zuid,4.8750368,52.3130434,ishii-amstelveen-2,Ishii,3,3.0,€€
K,Zuid,4.87951995847,52.3561848899,concertgebouw-café-amsterdam,Concertgebouw Café,1,4.0,€€
K,Zuid,4.89239,52.36456,cafe-de-bazel-amsterdam,Cafe de Bazel,5,4.5,€
K,Zuid,4.89058,52.3450599,nawaab-amsterdam,Nawaab,1,5.0,
K,Zuid,4.8737607,52.3550568,restaurant-oud-zuid-amsterdam,Restaurant Oud Zuid,17,3.5,€€€€
K,Zuid,4.85992,52.3598595,restaurant-forno-communale-amsterdam,Restaurant Forno Communale,13,3.5,€€
K,Zuid,4.89026,52.3558358,sari-citra-amsterdam,Sari Citra,15,4.0,€€
K,Zuid,4.88896789339,52.3584744507,otaru-amsterdam,Otaru,22,4.0,€€
K,Zuid,4.8635998,52.3097305,take-ya-amstelveen,Take-YA,2,4.5,
K,Zuid,4.8924104,52.3561924,wijnbar-boelen-and-boelen-amsterdam,Wijnbar Boelen & Boelen,11,4.0,€€
K,Zuid,4.886227,52.362364,mayur-indian-restaurant-amsterdam,Mayur Indian Restaurant,11,3.5,€€€
K,Zuid,4.8737953,52.3406451,fitch-en-shui-amsterdam,Fitch & Shui,9,3.0,€€
K,Zuid,4.86838,52.35525,cafe-waldeck-bar-amsterdam,Cafe Waldeck Bar,3,3.5,€€
K,Zuid,4.8926194,52.3552659,koffiehuis-de-markt-amsterdam,Koffiehuis De Markt,3,3.5,€€
K,Zuid,4.8836737,52.3640895,rancho-leidseplein-amsterdam,Rancho Leidseplein,2,4.5,
K,Zuid,4.8888946,52.3577852,le-restaurant-amsterdam,Le Restaurant,12,4.5,€€€€
K,Zuid,4.8926619,52.3558297,café-toko-amsterdam-2,Café Toko,7,4.0,€€
K,Zuid,4.8651366,52.3612328,fenan-klein-afrika-amsterdam,Fenan Klein Afrika,7,4.5,€€€
K,Zuid,4.88836871164,52.3549453397,carlitos-gardel-amsterdam,Carlitos Gardel,2,4.0,
K,Zuid,4.8816667,52.3532982,chinees-indisch-restaurant-new-peking-amsterdam,Chinees-Indisch Restaurant NEW Peking,2,3.0,
K,Zuid,4.8933706,52.3553658,sonny-amsterdam,Sonny,18,4.0,€
K,Zuid,4.88390702728,52.3526727007,college-hotel-amsterdam,College Hotel,20,4.0,€€€
K,Zuid,4.88891,52.35563,café-de-bieb-amsterdam,Café de Bieb,6,4.0,€€
K,Zuid,4.8901479,52.355516,patates-amsterdam-2,Patates,11,3.5,€
K,Zuid,4.8687272,52.3608544,olivity-amsterdam,Olivity,5,4.5,€€
K,Zuid,4.8754463,52.3621025,trattoria-toto-amsterdam,Trattoria Toto,9,4.0,€€€
K,Zuid,4.8847477,52.363235,sherpa-amsterdam-3,Sherpa,19,4.0,€€
K,Zuid,4.86423921585,52.3459510803,warung-tegal-amsterdam,Warung Tegal,2,4.5,
K,Zuid,4.8640199,52.3624191,saffraan-traiteur-brasserie-amsterdam,Saffraan Traiteur Brasserie,4,4.0,€€
K,Zuid,4.8917599,52.361599,le-delizie-amsterdam,Le Delizie,3,4.5,
K,Zuid,4.8927112,52.3531914,kam-kee-chinees-afhaalcentrum-amsterdam,Kam Kee Chinees Afhaalcentrum,3,4.0,€€
K,Zuid,4.86995,52.34021,hard-rock-amsterdam,Hard Rock,1,4.0,
K,Zuid,4.8899398,52.3445015,indonesisch-restaurant-djago-amsterdam,Indonesisch Restaurant Djago,15,3.5,€€
K,Zuid,4.87009166138,52.3207969021,amstelveen-snacks-amstelveen,Amstelveen Snacks,1,4.0,
K,Zuid,4.89260831126,52.3398654543,weekend-amsterdam,Weekend,1,4.0,€€
K,Zuid,4.8722401,52.3609695,de-hollandsche-manege-amsterdam,De Hollandsche Manege,10,4.0,€€
K,Zuid,4.8786201,52.3586197,taiko-by-schilo-amsterdam,Taiko by Schilo,5,3.5,€€€€
K,Zuid,4.8808799,52.3643608,delamar-grand-café-amsterdam-2,DeLaMar Grand Café,1,5.0,
K,Zuid,4.88999605211,52.3552714873,bagels-and-beans-amsterdam-2,Bagels & Beans,22,4.0,€€
K,Zuid,4.8900247,52.3528137,café-restaurant-zabayon-amsterdam-2,Café-Restaurant Zabayon,1,5.0,
K,Zuid,4.8854704,52.3635292,pizzeria-rimini-amsterdam,Pizzeria Rimini,8,3.5,€
K,Zuid,4.8899,52.3562299,the-avocado-show-amsterdam,The Avocado Show,5,4.0,
K,Zuid,4.8771621,52.3647929,taqueria-tacobar-amsterdam,Taqueria Tacobar,6,3.0,€€
K,Zuid,4.8809915,52.355526,martinot-amsterdam,Martinot,9,3.5,€€
K,Zuid,4.8850946,52.363163,shoarma-oma-amsterdam,Shoarma Oma,5,3.5,€
K,Zuid,4.86828,52.33094,new-york-pizza-buitenveldert-amsterdam,New York Pizza Buitenveldert,3,3.0,
K,Zuid,4.89,52.35504,mcdonalds-albert-cuypstraat-amsterdam,Mcdonald's Albert Cuypstraat,2,2.0,
K,Zuid,4.8838105,52.364872,febo-amsterdam-6,Febo,15,3.5,€
K,Zuid,4.87801649485,52.3633926209,peoples-place-amsterdam-3,People's Place,1,5.0,
K,Zuid,4.8852014,52.3638283,zorba-de-griek-amsterdam,Zorba de Griek,8,2.5,€€€
K,Zuid,4.8743209,52.3646155,toast-brothers-amsterdam,Toast Brothers,1,5.0,€
K,Zuid,4.89225905389,52.3631590082,brasserie-pit-amsterdam,Brasserie Pit,4,3.5,€€
K,Zuid,4.886157,52.3615227,deshima-amsterdam-2,Deshima,3,3.5,€€
K,Zuid,4.8904037,52.3545119,chefs-podium-amsterdam,Chef's Podium,1,4.0,€
K,Zuid,4.882988,52.354006,le-garage-amsterdam-2,Le Garage,16,3.5,€€€
K,Zuid,4.8734698,52.3621216,restaurant-fiorentino-amsterdam,Restaurant Fiorentino,2,4.5,€€€
K,Zuid,4.8755972,52.3205227,il-caffe-amstelveen-2,Il Caffe,1,4.0,
K,Zuid,4.8886209371,52.3547665828,balti-house-amsterdam,Balti House,14,4.0,€€
K,Zuid,4.8704801,52.3635101,wg-café-amsterdam-2,WG Café,6,4.0,€€
K,Zuid,4.88894535135,52.3546448492,auberge-jean-en-marie-amsterdam,Auberge Jean & Marie,2,3.5,€€€
K,Zuid,4.8645092,52.3621995,warung-celebes-amsterdam-2,Warung Celebes,6,4.0,€€
K,Zuid,4.8467002,52.3372002,nick-en-delano-amsterdam-2,Nick & Delano,1,4.0,
K,Zuid,4.8731399,52.3368912,dickys-amsterdam,Dickys,2,3.0,
K,Zuid,4.8809911,52.3638287,cafe-americain-amsterdam-3,Cafe Americain,11,3.5,€€€
K,Zuid,4.89074,52.356482,ginger-amsterdam,Ginger,5,3.0,€€
K,Zuid,4.89270429066,52.3561737664,het-paardje-amsterdam,Het Paardje,23,3.0,€€
K,Zuid,4.8857598,52.3524284,sotto-pizza-amsterdam-2,Sotto Pizza,9,2.0,€€
K,Zuid,4.8653269,52.3660507,feel-food-amsterdam,Feel Food,5,4.0,
K,Zuid,4.8869386,52.3498726,the-fat-dog-amsterdam,The Fat Dog,34,3.0,€€
K,Zuid,4.882757999,52.3648069126,pho-amsterdam-2,Pho,9,3.0,€€€
K,Zuid,4.8611089,52.3590491,cafe-goud-west-amsterdam,cafe Goud west,2,4.0,
K,Zuid,4.8874898,52.36269,broodje-art-amsterdam,Broodje Art,1,5.0,€
K,Zuid,4.88304,52.3645401,le-pub-leidseplein-amsterdam,Le Pub Leidseplein,8,4.0,€€
K,Zuid,4.8765295,52.3383543,julias-amsterdam-7,Julia's,5,3.5,€€
K,Zuid,4.8923903,52.3564568,venster-33-amsterdam,Venster 33,7,2.5,€€
K,Zuid,4.8607769,52.3593521,neetu-da-dhaba-amsterdam,Neetu Da Dhaba,3,4.5,€€
K,Zuid,4.8838601,52.3639183,casa-di-sergio-amsterdam,Casa Di Sergio,6,4.0,€€
K,Zuid,4.8844051,52.3642464,puri-mas-amsterdam,Puri Mas,25,4.0,€€€
K,Zuid,4.87733321182,52.348248623,brooks-amsterdam,Brooks,1,2.0,
K,Zuid,4.8905501,52.3448105,thai-food-house-chutimas-amsterdam,Thai Food House Chutima's,7,3.5,
K,Zuid,4.8849254,52.3524437,snackbar-eating-point-amsterdam,Snackbar Eating Point,1,3.0,€
K,Zuid,4.89365604401,52.3544185248,café-krull-amsterdam-3,Café Krull,15,3.0,€
K,Zuid,4.8810399,52.36188,hi-tec-coffeecafe-amsterdam,Hi-tec CoffeeCafe,1,5.0,€€
K,Zuid,4.85800376812,52.3443037177,vascobelo-amsterdam-9,Vascobelo,1,3.0,€
K,Zuid,4.8719401,52.339859,eetwinkel-zwaan-amsterdam,Eetwinkel Zwaan,3,3.5,€€
K,Zuid,4.883997,52.3635635,la-casa-amsterdam,La Casa,2,5.0,€€
K,Zuid,4.8614671,52.3595231,sushi-day-amsterdam,Sushi Day,1,5.0,
K,Zuid,4.88927693304,52.3549367126,caffe-500-amsterdam,Caffe 500,8,4.0,€€€
K,Zuid,4.8637499,52.3627899,deegrollers-amsterdam,Deegrollers,7,3.5,€€
K,Zuid,4.88887948378,52.3577020507,neighbours-amsterdam,Neighbours,2,3.0,
K,Zuid,4.89238400176,52.3628826498,mimi-latteria-milanese-amsterdam,Mimi Latteria Milanese,8,4.5,€€€€
K,Zuid,4.8894961,52.3510765,en-amsterdam-2,EN,1,4.0,
K,Zuid,4.87448909788,52.3641814192,thrill-grill-amsterdam-6,Thrill Grill,5,3.0,
K,Zuid,4.8611284,52.3481903,just-heat-me-amsterdam,Just Heat Me,1,4.0,
K,Zuid,4.8839798,52.3638611,ristorante-settebello-amsterdam,Ristorante Settebello,9,3.5,€€
K,Zuid,4.8895392,52.3513031,café-fonk-amsterdam-2,Café Fonk,7,3.5,€€
K,Zuid,4.8652172,52.3604202,abyssinia-afrikaans-eet-cafe-amsterdam,Abyssinia Afrikaans Eet-Cafe,19,3.5,€€
K,Zuid,4.885848,52.3632736,aphrodite-amsterdam,Aphrodite,2,4.0,€€
K,Zuid,4.89034940721,52.3544083616,lunchroom-hannibal-amsterdam,Lunchroom Hannibal,10,4.0,€€
K,Zuid,4.8851099,52.3636093,el-rancho-steakhouse-no-title,El Rancho Steakhouse,8,3.5,€€€
K,Zuid,4.8632631,52.3634758,eethuis-pizza-piom-bino-amsterdam,Eethuis Pizza Piom Bino,1,5.0,€
K,Zuid,4.8907687,52.3563205,café-de-pijp-amsterdam-2,Café De Pijp,16,3.0,€€
K,Zuid,4.86167,52.3369789,grand-cafe-mahler-amsterdam,Grand Cafe Mahler,1,4.0,
K,Zuid,4.8602649942,52.3448209278,big-mammy-burger-amsterdam,Big Mammy Burger,2,2.0,€€
K,Zuid,4.8651109,52.3612747,restaurant-paloma-blanca-amsterdam,Restaurant Paloma Blanca,7,3.5,€€
K,Zuid,4.8795796937,52.3575404153,restaurant-stedelijk-amsterdam,Restaurant Stedelijk,33,3.0,€€
K,Zuid,4.869908,52.355921,adriani-petit-amsterdam,Adriani Petit,1,4.0,€
K,Zuid,4.8583899,52.3445396,fachada-amsterdam,Fachada,5,3.0,€€
K,Zuid,4.88484,52.3632584,mr-tongs-amsterdam,Mr Tong's,15,3.0,€€
K,Zuid,4.8709878,52.3377749,nine-amsterdam,Nine,2,3.5,€€
K,Zuid,4.89326,52.36399,foam-café-amsterdam-2,Foam Café,7,3.5,€€
K,Zuid,4.8697535,52.3559177,da-portare-via-amsterdam-6,da Portare Via,1,3.0,
K,Zuid,4.8908312,52.3529888,temakery-amsterdam,Temakery,1,5.0,
K,Zuid,4.8921604,52.3615875,steakhouse-piet-de-leeuw-amsterdam,Steakhouse Piet de Leeuw,15,3.0,€€
K,Zuid,4.8927131,52.3528328,dominos-amsterdam-3,Domino's,1,4.0,€€
K,Zuid,4.8816724,52.3532906,nieuw-peking-amsterdam,Nieuw Peking,2,3.5,€€€
K,Zuid,4.8772068,52.3478165,gauchos-amsterdam-2,Gauchos,9,3.5,€€€
K,Zuid,4.8751702,52.3627892,toko-ikan-mas-amsterdam,Toko Ikan MAS,11,3.5,€€
K,Zuid,4.8904648,52.3571205,shabu-shabu-sushi-en-grill-amsterdam,Shabu Shabu Sushi & Grill,34,3.0,€€€
K,Zuid,4.8916132,52.3513447,boulangerie-1072-amsterdam,Boulangerie 1072,8,3.5,€€
K,Zuid,4.8912601,52.3598099,snackbar-eucalyptus-11-amsterdam,Snackbar Eucalyptus 11,1,3.0,
K,Zuid,4.8709569,52.3562431,mech-to-go-amsterdam,Mech To-Go,8,4.0,€€
K,Zuid,4.8835125,52.3523483,la-falote-amsterdam,La Falote,3,4.0,
K,Zuid,4.8612417,52.3591049,fondue-en-fondue-amsterdam-2,Fondue & Fondue,9,3.5,€€
K,Zuid,4.88161,52.3542599,soup-en-zo-amsterdam-4,Soup en Zo,2,4.5,
K,Zuid,4.880681,52.3555641,restaurant-zabars-amsterdam,Restaurant Zabar's,1,4.0,
K,Zuid,4.8897216127,52.3549081139,albina-amsterdam,Albina,10,4.0,€€
K,Zuid,4.8838201,52.3627205,cafetaria-de-prins-amsterdam,Cafetaria De Prins,13,3.5,€
K,Zuid,4.89288,52.3423805,broodje-van-het-land-amsterdam,Broodje van het Land,2,3.5,
K,Zuid,4.86501216888,52.3460617065,multifood-express-amsterdam,Multifood Express,1,4.0,€€
K,Zuid,4.8909564,52.3574638,o-donnells-irish-pub-amsterdam,O'Donnell's Irish Pub,22,3.0,€€
K,Zuid,4.88376718014,52.3633616982,sumo-amsterdam-2,Sumo,9,3.0,€€
K,Zuid,4.8853799,52.35995,rijksmuseum-café-amsterdam,Rijksmuseum Café,34,3.5,€€
K,Zuid,4.8845425,52.3634567,pizzaria-peppino-amsterdam,Pizzaria Peppino,13,3.5,€€
K,Zuid,4.8860202,52.3545113,blender-amsterdam,Blender,7,4.0,€€
K,Zuid,4.88375717876,52.3646074704,mcdonalds-leidsestraat-amsterdam,McDonald's Leidsestraat,20,4.0,€€
K,Zuid,4.88953460008,52.3547651868,miss-korea-amsterdam-2,Miss Korea,28,3.5,€€€
K,Zuid,4.8793898,52.3599014,p-c-hooftstraat-amsterdam,P.C. Hooftstraat,6,4.0,€€€€
K,Zuid,4.88451,52.3639297,bollywood-amsterdam,Bollywood,8,3.5,€€€
K,Zuid,4.884388,52.3642578,soho-sushi-amsterdam,Soho Sushi,10,3.0,€€€
K,Zuid,4.8736069724,52.3649887126,street-kitchen-amsterdam,Street Kitchen,3,2.0,€€
K,Zuid,4.8850732,52.3631783,restaurant-taste-of-culture-amsterdam,Restaurant Taste OF Culture,10,4.0,€€
K,Zuid,4.8785601,52.3499908,minimarkt-amsterdam,MiniMarkt,3,4.5,€€€
K,Zuid,4.8933864,52.3545647,amir-eetcafe-amsterdam,Amir Eetcafe,1,4.0,
K,Zuid,4.8923383,52.3631821,al-bacaro-amsterdam,Al Bacaro,6,4.5,€€€
K,Zuid,4.89142783301,52.3469090681,l-angolo-amsterdam,L'Angolo,1,4.0,
K,Zuid,4.8911099,52.3450699,steakhouse-buffalo-amsterdam-2,Steakhouse Buffalo,2,2.5,
K,Zuid,4.8888259,52.3555833,annies-foodstore-amsterdam,Annie's Foodstore,1,4.0,
K,Zuid,4.88312,52.36252,wagamama-amsterdam-3,Wagamama,42,3.0,€€
K,Zuid,4.86047621367,52.3644649609,porto-marina-amsterdam,Porto Marina,5,3.0,€€
K,Zuid,4.8793249,52.3311806,le-pain-gelderlandplein-amsterdam-2,Le Pain Gelderlandplein,1,4.0,€€
K,Zuid,4.8933706,52.3553658,frituur-vlaamse-frites-43-amsterdam,Frituur Vlaamse Frites 43,4,5.0,€€
K,Zuid,4.8927605,52.3531944,pizza-taxi-amsterdam,Pizza Taxi,6,4.5,€€
K,Zuid,4.874733,52.3623924,overtaart-amsterdam,Overtaart,1,4.0,
K,Zuid,4.8829999,52.3649597,tandoor-amsterdam,Tandoor,7,3.5,€€
K,Zuid,4.88961970656,52.3547571151,maoz-amsterdam-5,Maoz,3,3.5,€
K,Zuid,4.8896767,52.3549534,ikura-amsterdam-2,Ikura,7,4.0,€€
K,Zuid,4.8842422,52.3640027,royal-thai-amsterdam,Royal Thai,18,3.5,€€
K,Zuid,4.88942216827,52.351238901,lokaal-de-pijp-amsterdam,Lokaal De Pijp,2,4.0,
K,Zuid,4.8773098,52.3479881,new-china-city-amsterdam,New China City,8,2.5,€€€
K,Zuid,4.8840599,52.3642082,restaurant-do-brasil-amsterdam,Restaurant Do Brasil,5,2.0,€€
K,Zuid,4.890879,52.3552193,vlaardingse-haringhandel-amsterdam,Vlaardingse Haringhandel,1,5.0,
K,Zuid,4.89293927985,52.3554719527,totto-amsterdam,Totto,1,3.0,
K,Zuid,4.883018,52.3645935,hoopman-irish-pub-amsterdam-2,Hoopman Irish Pub,9,3.0,€
K,Zuid,4.8844052,52.3642474,topkapi-amsterdam,Topkapi,2,1.0,€€
K,Zuid,4.8746614,52.3623734,snackbar-grillroom-miriam-amsterdam,Snackbar-Grillroom Miriam,1,3.0,€€
K,Zuid,4.8850288,52.3642235,everything-on-a-stick-amsterdam,Everything On A Stick,15,3.5,€€€
K,Zuid,4.8832798,52.3637695,heineken-hoek-amsterdam,Heineken Hoek,17,3.0,€€
K,Zuid,4.88350057546,52.3635854653,palladium-amsterdam,Palladium,27,3.0,€€€
K,Zuid,4.8903839,52.3565996,l-ozio-amsterdam,L'Ozio,15,3.5,€€€
K,Zuid,4.8843615,52.3642724,mythos-greek-restaurant-amsterdam-2,Mythos Greek Restaurant,4,3.0,€€€
K,Zuid,4.88285336005,52.3628948322,hosokawa-amsterdam,Hosokawa,17,3.5,€€€
K,Zuid,4.8779802,52.3305817,ontbijt-en-lunch-werelds-amsterdam,Ontbijt en Lunch Werelds,2,3.0,€€
K,Zuid,4.8911099,52.3450699,uwe-majesteit-amsterdam,Uwe Majesteit,1,3.0,
K,Zuid,4.8836598,52.363558,ron-gastrobar-paris-amsterdam-2,Ron Gastrobar Paris,1,5.0,
K,Zuid,4.8887849,52.358532,curry-company-amsterdam,Curry Company,2,2.0,€
K,Zuid,4.8923254,52.3556824,thrill-grill-amsterdam-4,Thrill Grill,26,3.5,€€
K,Zuid,4.8781,52.36262,joost-amsterdam,Joost,2,3.0,
K,Zuid,4.8859134,52.3524437,emperium-amsterdam,Emperium,2,3.0,
K,Zuid,4.88300810185,52.3623522361,max-eten-en-drinken-amsterdam,Max Eten & Drinken,5,4.0,
K,Zuid,4.8892684,52.3508873,en-amsterdam,EN,1,5.0,€€€
K,Zuid,4.8888283,52.3526573,sarinah-javakitchen-amsterdam,Sarinah Javakitchen,1,3.0,
K,Zuid,4.8844051,52.3642464,pizzeria-mimo-amsterdam,Pizzeria Mimo,4,1.0,
K,Zuid,4.873281,52.3624382,dosa-amsterdam,Dosa,7,3.0,€
K,Zuid,4.8923383,52.3631821,soprano-lunchroom-amsterdam-2,Soprano Lunchroom,3,4.0,€€
K,Zuid,4.8836098,52.3641205,gauchos-amsterdam-4,Gauchos,13,3.0,€€€
K,Zuid,4.89137,52.34387,broodjeszaak-de-nieuwe-rai-amsterdam,Broodjeszaak De Nieuwe Rai,5,3.0,€€
K,Zuid,4.88375,52.3638496,albertos-amsterdam-2,Alberto's,8,4.0,
K,Zuid,4.86763,52.3637299,strangelove-amsterdam,Strangelove,2,4.0,
K,Zuid,4.8839402,52.3636894,rancho-amsterdam-2,Rancho,11,3.0,€€€
K,Zuid,4.8822899,52.3639717,stanislavski-amsterdam,Stanislavski,16,3.0,€€
K,Zuid,4.8874738,52.3521391,café-cees-amsterdam,Café Cees,3,3.0,
K,Zuid,4.8926463,52.3557549,eetcafé-de-zotte-lotte-amsterdam,Eetcafé De Zotte Lotte,1,3.0,
K,Zuid,4.86413679192,52.3619902031,lavanta-amsterdam,Lavanta,2,4.0,€€
K,Zuid,4.8860807,52.3635292,van-de-kaart-amsterdam-2,Van De Kaart,2,4.0,
K,Zuid,4.8896399,52.3502998,snackbar-johan-amsterdam,Snackbar Johan,1,3.0,
K,Zuid,4.8922293,52.3562111,café-life-amsterdam,Café Life,1,4.0,
K,Zuid,4.8915277,52.3607445,roghs-deli-amsterdam,Rogh's Deli,15,3.5,€€
K,Zuid,4.8896852,52.3527756,samba-kitchen-amsterdam,Samba Kitchen,7,3.5,€€
K,Zuid,4.874524,52.364014,mozzarella-bar-amsterdam,Mozzarella Bar,4,3.0,€
K,Zuid,4.8936033,52.3549118,warung-marlon-amsterdam,Warung Marlon,2,5.0,
K,Zuid,4.8914413,52.3605978,how-do-you-roll-amsterdam,How Do You Roll,3,4.0,
K,Zuid,4.86517,52.3595085,tennisclub-kattenlaan-amsterdam,Tennisclub Kattenlaan,4,4.0,€€
K,Zuid,4.8633504,52.3512611,ii-japanese-deli-amsterdam,ii Japanese Deli,1,5.0,€€
K,Zuid,4.8833399,52.3643913,febo-amsterdam-13,Febo,29,3.5,€
K,Zuid,4.8932399,52.35553,reggae-ritas-amsterdam,Reggae Rita's,1,4.0,
K,Zuid,4.8883581,52.3558731,taverna-barcelona-amsterdam,Taverna Barcelona,8,3.0,€€
K,Zuid,4.89113,52.3451881,het-bestekje-amsterdam,Het Bestekje,6,3.5,€€
K,Zuid,4.8914299,52.3524399,kwekkeboom-patisserie-amsterdam,Kwekkeboom Patisserie,4,4.0,
K,Zuid,4.87385,52.35774,paprika-csárda-amsterdam,Paprika Csárda,1,3.0,
K,Zuid,4.8863931,52.3621597,restaurant-te-pas-amsterdam-2,Restaurant te Pas,6,4.0,€€€
K,Zuid,4.88543559321,52.3637816698,bento-amsterdam-2,+Bento,4,2.5,€€
K,Zuid,4.8904719,52.3571663,eazie-amsterdam,Eazie,9,3.5,€€
K,Zuid,4.8920101,52.3543849,ninour-amsterdam,Ninour,2,4.5,
K,Zuid,4.8838601,52.3639183,cucina-tipica-italiana-amsterdam,Cucina Tipica Italiana,1,4.0,
K,Zuid,4.8896354,52.3554037,saray-amsterdam,Saray,7,4.0,€€€
K,Zuid,4.8897395,52.3575478,walia-ibex-amsterdam,Walia Ibex,5,4.5,€€
K,Zuid,4.8888402,52.3634491,la-cucina-di-mimi-amsterdam,La Cucina Di Mimi,1,4.0,
K,Zuid,4.8806291,52.354805,de-knijp-amsterdam,De Knijp,11,3.5,€€€
K,Zuid,4.8780036,52.3592644,oriënt-amsterdam-3,Oriënt,2,3.5,
K,Zuid,4.87111,52.32603,golan-lunchroom-amsterdam,Golan Lunchroom,1,5.0,
K,Zuid,4.88516494632,52.363486997,café-het-hok-amsterdam,Café Het Hok,4,4.0,€€
K,Zuid,4.8762298,52.3430786,luus-amsterdam,Luus,1,3.0,
K,Zuid,4.8842611,52.3643224,restaurant-la-luna-amsterdam,Restaurant La Luna,1,5.0,
K,Zuid,4.8636,52.30957,hiro-sushi-amstelveen,Hiro Sushi,2,4.0,€€€
K,Zuid,4.89116716961,52.3573273337,de-kleine-valk-amsterdam,De Kleine Valk,7,3.5,€€
K,Zuid,4.8841864,52.3637954,matias-amsterdam,Matias,5,2.0,
K,Zuid,4.88910008222,52.3547719445,lesbos-grieks-restaurant-amsterdam-2,Lesbos Grieks Restaurant,1,1.0,
K,Zuid,4.8920898,52.3624115,juice-en-salad-café-amsterdam,Juice & Salad Café,14,4.5,€€
K,Zuid,4.8681796668,52.3441951653,de-brug-amsterdam,De Brug,1,3.0,
K,Zuid,4.8848301,52.3631764,amsterdam-lunchroom-amsterdam,Amsterdam Lunchroom,2,4.5,€€
K,Zuid,4.8767509,52.3629684,sawaddee-ka-thai-amsterdam-2,Sawaddee Ka Thai,15,3.0,€€
K,Zuid,4.8911099,52.3450699,toon-grill-amsterdam,Toon Grill,1,1.0,
K,Zuid,4.87823,52.33231,huis-van-de-wijk-amsterdam-2,Huis van de Wijk,1,4.0,
K,Zuid,4.88185,52.36405,kopstootbar-amsterdam-2,Kopstootbar,1,4.0,
K,Zuid,4.8910899,52.3450317,orbit-restaurant-and-lounge-amsterdam,Orbit Restaurant & Lounge,14,3.5,€€€
K,Zuid,4.89142,52.34747,sushipoint-amsterdam,SushiPoint,1,4.0,
K,Zuid,4.8602901,52.3504486,sushi-kings-amsterdam,Sushi Kings,8,3.5,€€€
K,Zuid,4.8906298,52.3453789,le-perron-amsterdam-2,Le Perron,1,3.0,
K,Zuid,4.8848007,52.3638643,streetfood-amsterdam,Streetfood,1,5.0,
K,Zuid,4.89154401837,52.3478860395,kushitei-of-tokyo-amsterdam,Kushitei of Tokyo,9,3.0,€€
K,Zuid,4.89125,52.3460899,vinnies-amsterdam-4,Vinnies,4,4.0,€€
K,Zuid,4.87626,52.33086,jamin-amsterdam-8,Jamin,1,5.0,
K,Zuid,4.8931699,52.35778,piadina-bar-amsterdam,Piadina Bar,5,4.5,€€
K,Zuid,4.8813634,52.3643494,trattoria-fantasia-amsterdam,Trattoria Fantasia,11,3.0,€€
K,Zuid,4.8909001,52.3538704,febo-amsterdam-8,Febo,3,3.5,€
K,Zuid,4.88341,52.3636513,blinq-amsterdam,Blinq,9,3.0,€€€
K,Zuid,4.86309,52.33672,the-barn-food-amsterdam,The Barn Food,2,3.5,€€
K,Zuid,4.8835402,52.3641586,burger-king-amsterdam-3,Burger King,12,3.5,€€
K,Zuid,4.8909998,52.3575706,top-wok-amsterdam,TOP WOK,3,4.0,
K,Zuid,4.8860102,52.3622704,de-saloon-amsterdam,De Saloon,10,3.5,€€
K,Zuid,4.87018983811,52.3612600237,boezemvriend-amsterdam-2,Boezemvriend,2,5.0,
K,Zuid,4.8907847,52.3542442,bakkerij-bart-amsterdam-5,Bakkerij Bart,4,3.0,€
K,Zuid,4.8916015922,52.3529959049,subway-amsterdam-3,Subway,5,2.5,€€
K,Zuid,4.8880501,52.3636703,hans-brinker-amsterdam,Hans Brinker,1,3.0,€€
K,Zuid,4.88461107016,52.3640291356,villa-maria-amsterdam,Villa Maria,5,2.5,€€€
K,Zuid,4.89369050773,52.3556491786,vishandel-albert-cuyp-amsterdam,Vishandel Albert Cuyp,3,4.5,€€
K,Zuid,4.8869349,52.3524615,señor-mostachio-amsterdam-2,Señor Mostachio,1,5.0,€
K,Zuid,4.8916202,52.3436317,pizzeria-colosseo-amsterdam,Pizzeria Colosseo,2,1.0,
K,Zuid,4.891164,52.355009,los-feliz-amsterdam,Los feliz,1,5.0,
K,Zuid,4.8698254,52.3615074,ah-sang-amsterdam,Ah Sang,1,3.0,
K,Zuid,4.8928499,52.3554497,chris-zuurkraam-amsterdam,Chris ' Zuurkraam,3,4.5,€€€
K,Zuid,4.88729,52.3617516,arabic-lounge-amsterdam,Arabic Lounge,5,4.0,€€
K,Zuid,4.890718,52.3559685,kebab-house-amsterdam,Kebab House,6,4.0,
K,Zuid,4.8903599,52.354126,hoi-king-amsterdam,Hoi King,1,5.0,
K,Zuid,4.89309,52.35579,goût-deli-boutique-amsterdam-2,Goût Deli Boutique,1,5.0,
K,Zuid,4.8803280027,52.3588665293,conservatorium-amsterdam-2,Conservatorium,4,3.0,€€€
K,Zuid,4.8847899,52.3639984,bojo-amsterdam-4,Bojo,13,3.0,€€
K,Zuid,4.8648496,52.3616524,vibes-cafe-amsterdam,Vibes Cafe,2,3.5,€€
K,Zuid,4.8849254,52.3633347,pizzeria-il-palio-amsterdam,Pizzeria Il Palio,13,3.5,€
K,Zuid,4.88375568869,52.3646011908,saigon-amsterdam,Saigon,32,3.0,€€
K,Zuid,4.8884201,52.3556519,paper-planes-amsterdam-2,Paper Planes,1,3.0,
K,Zuid,4.8843398,52.3636093,chicanos-amsterdam-3,Chicano's,20,2.0,€€
K,Zuid,4.89137464294,52.3607040495,ikimasu-amsterdam,Ikimasu,4,3.5,€€
K,Zuid,4.8828902,52.3646088,cafe-reynders-amsterdam,Cafe Reynders,11,2.5,€€
K,Zuid,4.89071439839,52.3570184302,limeleaf-amsterdam,Limeleaf,1,1.0,
K,Zuid,4.8848419,52.3639653,el-vino-amsterdam-2,El Vino,1,4.0,
K,Zuid,4.8641992,52.3598061,restaurant-addis-ababa-amsterdam,Restaurant Addis Ababa,11,3.5,€€
K,Zuid,4.8853555,52.3636093,ristorante-pizzeria-piccolino-amsterdam,Ristorante Pizzeria Piccolino,6,4.0,€€€
K,Zuid,4.8862653,52.353569,pheun-thai-amsterdam,Pheun Thai,2,4.5,
K,Zuid,4.8869348,52.3525047,eetcafé-vrienden-amsterdam-2,Eetcafé Vrienden,2,3.5,
K,Zuid,4.8902698,52.3559074,frituur-d-anvers-amsterdam,Frituur d'Anvers,5,3.5,€€
K,Zuid,4.8831301,52.3643417,restaurantjes-lange-en-korte-leidsedwarsstraat-amsterdam,Restaurantjes Lange en Korte Leidsedwarsstraat,2,4.5,
K,Zuid,4.86471176147,52.3610038848,grand-aspendos-amsterdam,Grand Aspendos,5,4.0,€€
K,Zuid,4.86263506114,52.3613472457,café-mees-amsterdam-2,Café Mees,1,5.0,
K,Zuid,4.8843703,52.3642693,bar-b-amsterdam-2,Bar-B,21,2.5,€€
K,Zuid,4.88466740461,52.3637548822,elvino-amsterdam,Elvino,6,3.0,€€
K,Zuid,4.8894825,52.3546448,puri-indonesia-amsterdam,Puri Indonesia,7,3.0,
K,Zuid,4.88972035703,52.3549150446,haci-baba-amsterdam,Haci Baba,1,4.0,
K,Zuid,4.88430640277,52.3642300824,pancake-bar-amsterdam,Pancake Bar,3,4.0,€
K,Zuid,4.8927221,52.3555603,pahop-thai-amsterdam-2,Pahop Thai,6,3.5,€€
K,Zuid,4.8835585,52.3636121,paper-planes-amsterdam-3,Paper Planes,1,2.0,
K,Zuid,4.8650198,52.3608208,waroeng-asje-amsterdam,Waroeng Asje,3,3.0,
K,Zuid,4.89018533075,52.3554679707,grillroom-shalom-amsterdam,Grillroom Shalom,1,4.0,
K,Zuid,4.8834801,52.3641205,restaurant-mai-thai-no-title,Restaurant Mai Thai,8,3.0,€€
K,Zuid,4.87517,52.36279,automatiek-constantijn-amsterdam-2,Automatiek Constantijn,6,4.0,€€
K,Zuid,4.885342,52.363742,bojo-speciaal-amsterdam,Bojo Speciaal,2,4.0,
K,Zuid,4.894444,52.3500328,chocolate-amsterdam,Chocolate,3,2.5,€€
K,Zuid,4.8935601,52.3555974,oceanz-takeaway-amsterdam,Oceanz Takeaway,2,2.5,
K,Zuid,4.86439829961,52.3339897567,the-basket-amsterdam,The Basket,3,2.5,
K,Zuid,4.8843617,52.3642731,ristorante-bella-napoli-amsterdam,Ristorante Bella Napoli,1,4.0,
K,Zuid,4.8622093,52.3648126,tropical-brasil-amsterdam,Tropical Brasil,4,3.5,
K,Zuid,4.8915939,52.3515167,kofi-t-amsterdam,Kofi-T,20,3.5,€€
K,Zuid,4.88339,52.3646,de-belg-amsterdam,De Belg,1,3.0,€
K,Zuid,4.8889707,52.3634941,the-shift-amsterdam,THE SHIFT,1,5.0,
K,Zuid,4.8640599,52.3622398,lunchroom-tamara-amsterdam,Lunchroom Tamara,1,2.0,
K,Zuid,4.8921604,52.3615875,piet-de-leeuw-amsterdam,Piet de Leeuw,6,3.0,€€€
K,Zuid,4.8853898,52.3634682,umi-sushi-and-grill-amsterdam,Umi Sushi & Grill,4,3.5,€€
K,Zuid,4.8810153,52.3550911,indonesisch-restaurant-djanoko-amsterdam,Indonesisch Restaurant Djanoko,4,1.5,
K,Zuid,4.8838902,52.3627701,pancake-corner-amsterdam-2,Pancake Corner,44,2.0,€€
K,Zuid,4.8610945,52.3641968,meos-colosseum-amsterdam,Meo's Colosseum,3,2.5,
K,Zuid,4.8846598,52.36343,da-pe-pino-amsterdam,Da Pe-Pino,1,4.0,
K,Zuid,4.8920898,52.3624115,go-fresh-shop-amsterdam,Go Fresh Shop,2,2.5,€
K,Zuid,4.8932667,52.3553925,café-de-groene-vlinder-amsterdam-2,Café de Groene Vlinder,14,3.5,€€
K,Zuid,4.85837134813,52.3583265695,frenzi-cucina-amsterdam,Frenzi Cucina,5,3.5,€€
K,Zuid,4.8784618,52.3648987,eetcafé-compaenen-amsterdam-2,Eetcafé Compaenen,5,3.0,€€
K,Zuid,4.8870902,52.3576813,siriphon-thais-eethuis-amsterdam,Siriphon Thais Eethuis,7,4.0,€€
K,Zuid,4.8883357,52.3555717,frans-amsterdam-3,Frans,1,2.0,
K,Zuid,4.8846202,52.3638611,rancho-amsterdam-3,Rancho,1,2.0,€€€
K,Zuid,4.8735671,52.3559456,sal-gorda-amsterdam-2,Sal Gorda,4,3.5,€€
K,Zuid,4.8898634,52.3547167,yay-health-store-amsterdam,YAY Health Store,9,4.5,€€€
K,Zuid,4.87059,52.33736,b-en-b-lunchroom-amsterdam-2,B&B Lunchroom,1,3.0,
K,Zuid,4.8834701,52.3622894,yumi-sushi-amsterdam,Yumi Sushi,9,3.0,€€
K,Zuid,4.8682499,52.3314781,select-eetcaf-amsterdam,Select Eetcaf,1,3.0,
K,Zuid,4.8900771,52.3525028,julius-bar-en-grill-amsterdam,Julius Bar & Grill,18,3.0,€€€
K,Zuid,4.88479547203,52.3635162743,de-blauwe-hollander-amsterdam-2,De Blauwe Hollander,1,3.0,
K,Zuid,4.8854281,52.3637623,restaurant-los-argentinos-amsterdam,Restaurant Los Argentinos,9,3.0,€€
K,Zuid,4.8894533,52.3523913,eetcafe-duble-amsterdam,Eetcafe Duble,1,4.0,
K,Zuid,4.87035509975,52.3101050503,de-beerbijt-amstelveen,De Beerbijt,1,1.0,
K,Zuid,4.8748639226,52.363298025,burgerlijk-amsterdam,Burgerlijk,2,2.0,€€
K,Zuid,4.8823829,52.3646393,luminaa-amsterdam,Luminaa,7,3.0,€€
K,Zuid,4.8824801,52.3590813,t-museumpleintje-amsterdam,'T Museumpleintje,2,1.0,
K,Zuid,4.8648545,52.3616446,trattoria-da-damiano-amsterdam,Trattoria da Damiano,1,3.0,
K,Zuid,4.8934055,52.3552919,café-schilders-amsterdam-3,Café Schilders,16,3.5,€€
K,Zuid,4.8904648,52.3571205,café-kale-de-derde-amsterdam-2,Café Kale de Derde,1,4.0,
K,Zuid,4.8901477,52.3555145,cafetaria-moes-amsterdam,Cafetaria Moes,4,3.0,
K,Zuid,4.88479071313,52.3631763069,de-hummus-house-amsterdam-3,De Hummus House,2,3.0,
K,Zuid,4.8828316,52.3646544,cafe-hole-in-the-wall-amsterdam-2,Cafe Hole In The Wall,12,3.0,€€
K,Zuid,4.8741002,52.3640213,juice-en-salad-café-amsterdam-3,Juice & Salad Café,10,3.0,€€
K,Zuid,4.8930454,52.3551369,chocolate-bar-amsterdam,Chocolate Bar,23,3.0,€€
K,Zuid,4.8749099,52.3130112,yu-woah-amstelveen,Yu Woah,1,2.0,
K,Zuid,4.87253,52.3622246,dionysos-amsterdam,Dionysos,3,3.5,€€
K,Zuid,4.86798841506,52.3309739653,machico-amsterdam,Machico,2,1.0,
K,Zuid,4.8906498,52.3454285,japanse-restaurant-orandaya-amsterdam,Japanse Restaurant Orandaya,7,3.0,€€€
K,Zuid,4.8850289,52.3633929,klein-tirol-amsterdam,Klein Tirol,1,4.0,
K,Zuid,4.87497,52.36105,het-bierbordes-amsterdam-2,Het Bierbordes,1,3.0,€€
K,Zuid,4.89118,52.3574,nam-kee-amsterdam-3,Nam Kee,14,3.0,€€
K,Zuid,4.8709798,52.3377686,heat-amsterdam-amsterdam,Heat Amsterdam,2,3.5,€€€
K,Zuid,4.8773513,52.3648415,pizzeria-monte-bianco-amsterdam,Pizzeria Monte Bianco,1,3.0,
K,Zuid,4.86200337437,52.3646861663,infinity-amsterdam,Infinity,2,2.0,
K,Zuid,4.8762398,52.3628311,dominos-amsterdam-2,Domino's,1,5.0,
K,Zuid,4.8845301,52.3632202,mama-shwarma-amsterdam,Mama Shwarma,3,4.5,
K,Zuid,4.89161636522,52.3568712391,ecole-amsterdam,Ecole,7,3.0,€€
K,Zuid,4.8868105,52.3525025,algiers-amsterdam,Algiers,5,3.5,€€
K,Zuid,4.87819,52.3633995,mugen-amsterdam,MuGen,1,1.0,
K,Zuid,4.88340742498,52.3594243698,kiosk-rembrandt-van-gogh-amsterdam,Kiosk Rembrandt Van Gogh,1,5.0,€
K,Zuid,4.8924856,52.3596992,restaurant-felicita-amsterdam,Restaurant Felicita,5,3.5,€€€
M,Oost,4.92424297333,52.362323761,de-biertuin-amsterdam,De Biertuin,53,4.5,€€
M,Oost,4.9333639,52.3634872,walters-amsterdam,Walter's,26,4.0,€€
M,Oost,4.93054439602,52.3521712921,de-kas-amsterdam,De Kas,99,4.5,€€€€
M,Oost,4.9403118,52.3634415,wilde-zwijnen-amsterdam,Wilde Zwijnen,48,4.5,€€€
M,Oost,4.9348416,52.3625098,drovers-dog-amsterdam,Drovers Dog,30,4.5,€€
M,Oost,4.9237108,52.3631246,louie-louie-amsterdam,Louie Louie,19,4.0,€€
M,Oost,4.9260983,52.3646519,boi-boi-amsterdam-2,Boi Boi,14,4.5,€€
M,Oost,4.9269383,52.371485,roest-amsterdam-7,Roest,45,4.5,€€
M,Oost,4.9396049,52.3647658,joost-amsterdam-2,Joost,8,4.5,€
M,Oost,4.9335299,52.3511696,merkelbach-amsterdam,Merkelbach,13,4.0,€€
M,Oost,4.95056099335,52.354314462,maslow-amsterdam-2,Maslow,6,4.5,€€
M,Oost,4.9244266,52.3618164,roopram-roti-amsterdam,Roopram Roti,30,4.0,€€
M,Oost,4.92864163359,52.3606939963,lalla-rookh-amsterdam,Lalla Rookh,17,4.5,€
M,Oost,4.9260999,52.3602192,warung-sranang-makmur-amsterdam,Warung Sranang Makmur,4,5.0,
M,Oost,4.9257738,52.3598868,café-kuijper-amsterdam-2,Café Kuijper,12,4.5,€€
M,Oost,4.9399199,52.3639412,thai-tiger-amsterdam,Thai Tiger,24,4.0,€€
M,Oost,4.9258699,52.3668213,langendijk-amsterdam,Langendijk,30,3.5,€€
M,Oost,4.9353621,52.3641036,nelis-amsterdam-2,NELIS,9,4.5,€€€
M,Oost,4.93532851455,52.3686958716,boulevard-café-amsterdam-2,Boulevard Café,5,4.5,€€
M,Oost,4.936031,52.3652376,studio-k-amsterdam-2,Studio/K,28,4.0,€€
M,Oost,4.9270805,52.3660865,café-dorst-amsterdam-3,Café Dorst,5,4.0,€€
M,Oost,4.9318730437,52.3531647638,elsas-amsterdam,Elsa's,14,4.0,€€
M,Oost,4.92516675658,52.3606217555,pata-negra-2-amsterdam,Pata Negra 2,16,4.0,€€
M,Oost,4.9312275,52.3713308,olie-en-zo-amsterdam-2,Olie & Zo,6,4.0,€€
M,Oost,4.9358901,52.3635851,bar-basquiat-amsterdam,Bar Basquiat,8,4.5,€€
M,Oost,4.93787,52.3638549,rum-barrel-amsterdam,Rum Barrel,6,4.5,€€
M,Oost,4.9362502,52.3740387,khl-amsterdam,KHL,8,4.0,€€
M,Oost,4.9337349,52.3638039,bedford-stuyvesant-amsterdam,Bedford - Stuyvesant,16,4.0,€€
M,Oost,4.93034,52.36343,bar-botanique-amsterdam,Bar Botanique,8,4.5,€€
M,Oost,4.92554,52.3559914,restaurant-meram-amsterdam-oost,Restaurant Meram,8,4.0,€
M,Oost,4.9371819,52.3636251,eetlokaal-lt-amsterdam,Eetlokaal LT,2,4.5,€
M,Oost,4.9527483234,52.3545847892,cafe-restaurant-polder-amsterdam,Cafe Restaurant Polder,14,4.0,€€
M,Oost,4.92690129395,52.3542768027,la-vallade-amsterdam,La Vallade,17,4.5,€€€
M,Oost,4.9403653,52.3764458,kanis-en-meiland-3-0-amsterdam,Kanis & Meiland 3.0,9,4.0,€€
M,Oost,4.9457542,52.3768054,the-beef-chief-amsterdam-nord-2,The  Beef Chief,2,5.0,
